timestamp(unix),attitude_roll(radians),attitude_pitch(radians),attitude_yaw(radians),rotation_rate_x(radians/s),rotation_rate_y(radians/s),rotation_rate_z(radians/s),gravity_x(G),gravity_y(G),gravity_z(G),user_acc_x(G),user_acc_y(G),user_acc_z(G),magnetic_field_x(microteslas),magnetic_field_y(microteslas),magnetic_field_z(microteslas),latitude(degree),longitude(degree),altitude(meter),speed(m/s),course(degree),timestamp(unix),User Mark
1514403683.082229,-0.137908,1.526608,1.629687,0.000313,0.003413,0.000016,-0.006069,-0.999024,-0.043732,0.003994,0.003495,0.004074,-57.408249,-52.649231,63.413177,,,,,,,1
,,,,,,,,,,,,,,,,33.823645,-116.547356,138.330017,-1.000000,-1.000000,1514403680.859536,1
1514403683.092208,-0.138025,1.526613,1.629782,0.001356,-0.003033,0.001059,-0.006074,-0.999024,-0.043729,0.004014,0.005005,0.005185,-57.370697,-52.716545,63.516205,,,,,,,1
1514403683.102218,-0.137857,1.526614,1.629619,-0.000761,0.000214,-0.001070,-0.006067,-0.999024,-0.043732,0.004389,0.004441,0.004212,-57.370697,-52.716545,63.516205,,,,,,,1
1514403683.112197,-0.138096,1.526608,1.629847,0.001368,-0.000894,0.001068,-0.006078,-0.999024,-0.043734,0.003896,0.004593,0.004214,-57.368271,-52.530281,63.418854,,,,,,,1
1514403683.122176,-0.138068,1.526608,1.629832,-0.000769,0.000186,0.001069,-0.006077,-0.999024,-0.043734,0.005329,0.005494,0.003924,-57.368271,-52.530281,63.418854,,,,,,,1
1514403683.132186,-0.137806,1.526619,1.629567,0.000303,-0.000860,-0.001073,-0.006064,-0.999024,-0.043726,0.003928,0.005326,0.003870,-57.666077,-52.509220,63.618225,,,,,,,1
1514403683.142165,-0.137595,1.526601,1.629373,-0.002897,0.002369,-0.001065,-0.006057,-0.999024,-0.043744,0.004363,0.004425,0.004559,-57.666077,-52.509220,63.618225,,,,,,,1
1514403683.152144,-0.137539,1.526591,1.629309,-0.001843,-0.000863,-0.000008,-0.006056,-0.999023,-0.043755,0.003935,0.005142,0.004387,-57.337997,-52.437248,63.580811,,,,,,,1
1514403683.162154,-0.137533,1.526595,1.629294,0.001376,-0.000884,-0.000001,-0.006055,-0.999023,-0.043751,0.004179,0.005508,0.003330,-57.337997,-52.437248,63.580811,,,,,,,1
1514403683.172133,-0.137392,1.526598,1.629146,-0.001843,-0.004070,-0.001091,-0.006049,-0.999023,-0.043752,0.004096,0.005249,0.005101,-57.595062,-52.401840,63.563171,,,,,,,1
1514403683.182113,-0.137481,1.526596,1.629232,-0.000763,-0.000894,0.001065,-0.006053,-0.999023,-0.043753,0.004039,0.005142,0.004019,-57.595062,-52.401840,63.563171,,,,,,,1
1514403683.192122,-0.137469,1.526601,1.629218,0.000306,-0.001955,-0.000008,-0.006052,-0.999024,-0.043748,0.003794,0.004852,0.003435,-57.715530,-52.513924,63.492004,,,,,,,1
1514403683.202102,-0.137474,1.526608,1.629206,0.001368,-0.000894,0.001067,-0.006051,-0.999024,-0.043739,0.004006,0.005036,0.003547,-57.715530,-52.513924,63.492004,,,,,,,1
1514403683.212081,-0.137463,1.526610,1.629190,-0.000769,-0.000871,-0.000006,-0.006050,-0.999024,-0.043735,0.004707,0.004899,0.003833,-57.709412,-52.469616,63.647644,,,,,,,1
1514403683.222091,-0.137178,1.526609,1.628903,-0.000765,-0.000857,-0.001076,-0.006038,-0.999024,-0.043741,0.003398,0.004609,0.004724,-57.709412,-52.469616,63.647644,,,,,,,1
1514403683.232070,-0.137536,1.526611,1.629248,0.000292,-0.001976,0.002130,-0.006054,-0.999024,-0.043737,0.003261,0.004120,0.004903,-57.479340,-52.327274,63.614838,,,,,,,1
1514403683.242049,-0.137750,1.526608,1.629453,-0.000777,-0.001956,0.001058,-0.006063,-0.999024,-0.043738,0.004141,0.004197,0.004386,-57.479340,-52.327274,63.614838,,,,,,,1
1514403683.252059,-0.137617,1.526609,1.629301,-0.000775,-0.002998,-0.001086,-0.006058,-0.999024,-0.043739,0.003998,0.005051,0.003532,-57.422989,-52.422543,63.419708,,,,,,,1
1514403683.262038,-0.137531,1.526618,1.629178,0.001358,-0.004093,-0.000018,-0.006052,-0.999024,-0.043729,0.004160,0.004990,0.002912,-57.422989,-52.422543,63.419708,,,,,,,1
1514403683.272017,-0.137605,1.526610,1.629248,-0.000769,-0.000871,-0.000008,-0.006057,-0.999024,-0.043736,0.003905,0.005082,0.003926,-57.555450,-52.431156,63.610901,,,,,,,1
1514403683.282027,-0.137342,1.526611,1.628977,0.000305,0.000213,-0.001071,-0.006045,-0.999024,-0.043737,0.004290,0.004242,0.004736,-57.555450,-52.431156,63.610901,,,,,,,1
1514403683.292006,-0.137487,1.526627,1.629115,0.001365,-0.000892,0.001065,-0.006049,-0.999025,-0.043722,0.003761,0.005693,0.003989,-57.413376,-52.323895,63.573425,,,,,,,1
1514403683.301986,-0.137513,1.526639,1.629123,0.001370,-0.003028,-0.000013,-0.006049,-0.999025,-0.043713,0.004142,0.005998,0.004055,-57.413376,-52.323895,63.573425,,,,,,,1
1514403683.311995,-0.137481,1.526637,1.629098,0.000316,0.001261,0.000004,-0.006048,-0.999025,-0.043713,0.004003,0.005281,0.003644,-57.477875,-52.476742,63.722656,,,,,,,1
1514403683.321975,-0.137235,1.526645,1.628844,-0.000770,-0.001927,-0.001083,-0.006036,-0.999025,-0.043709,0.003519,0.004183,0.003762,-57.477875,-52.476742,63.722656,,,,,,,1
1514403683.331954,-0.137238,1.526650,1.628829,0.000297,-0.001946,-0.000011,-0.006036,-0.999026,-0.043705,0.003381,0.004092,0.004749,-57.216324,-52.609955,63.327179,,,,,,,1
1514403683.341933,-0.137179,1.526645,1.628784,-0.001817,0.004488,0.000014,-0.006034,-0.999025,-0.043712,0.004676,0.005266,0.004268,-57.216324,-52.609955,63.327179,,,,,,,1
1514403683.351943,-0.137014,1.526637,1.628613,-0.000772,-0.003000,-0.001087,-0.006028,-0.999025,-0.043718,0.004609,0.004854,0.004656,-57.562363,-52.530296,63.449615,,,,,,,1
1514403683.361922,-0.137255,1.526654,1.628875,0.001375,0.000191,0.000000,-0.006036,-0.999026,-0.043703,0.004373,0.004962,0.004595,-57.562363,-52.530296,63.449615,,,,,,,1
1514403683.371902,-0.137120,1.526661,1.628743,0.001379,0.001263,0.000005,-0.006030,-0.999026,-0.043699,0.004351,0.005404,0.004179,-57.535919,-52.661839,63.627045,,,,,,,1
1514403683.381911,-0.137218,1.526660,1.628833,-0.000766,-0.000874,-0.000008,-0.006034,-0.999026,-0.043700,0.003288,0.004977,0.003783,-57.535919,-52.661839,63.627045,,,,,,,1
1514403683.391891,-0.137325,1.526664,1.628938,0.001376,-0.000868,-0.001074,-0.006039,-0.999026,-0.043696,0.003506,0.004535,0.004405,-57.487762,-52.672447,63.694580,,,,,,,1
1514403683.401870,-0.137333,1.526674,1.628942,0.000308,-0.000881,-0.000006,-0.006038,-0.999027,-0.043686,0.004115,0.005191,0.003754,-57.487762,-52.672447,63.694580,,,,,,,1
1514403683.411880,-0.137560,1.526672,1.629156,0.000301,-0.001967,0.001059,-0.006048,-0.999027,-0.043687,0.002492,0.004871,0.003511,-57.338745,-52.764500,63.530701,,,,,,,1
1514403683.421859,-0.137586,1.526687,1.629167,0.002440,-0.000883,-0.000003,-0.006047,-0.999027,-0.043672,0.003972,0.005070,0.003770,-57.338745,-52.764500,63.530701,,,,,,,1
1514403683.431838,-0.137689,1.526686,1.629251,0.000293,-0.001960,0.001058,-0.006052,-0.999027,-0.043673,0.004388,0.004932,0.004214,-57.464813,-52.634510,63.480408,,,,,,,1
1514403683.441848,-0.137583,1.526699,1.629134,0.001375,-0.000884,-0.000005,-0.006046,-0.999028,-0.043663,0.004352,0.004643,0.004128,-57.464813,-52.634510,63.480408,,,,,,,1
1514403683.451827,-0.137837,1.526712,1.629389,0.001376,0.000173,0.001070,-0.006055,-0.999028,-0.043648,0.004483,0.004750,0.004265,-57.474594,-52.669975,63.567993,,,,,,,1
1514403683.461806,-0.137568,1.526721,1.629146,-0.000764,0.000200,-0.000004,-0.006042,-0.999029,-0.043644,0.003265,0.004522,0.004612,-57.474594,-52.669975,63.567993,,,,,,,1
1514403683.471816,-0.137514,1.526714,1.629098,-0.000753,0.002356,-0.001064,-0.006041,-0.999029,-0.043651,0.004332,0.004659,0.004115,-57.422470,-52.641766,63.399017,,,,,,,1
1514403683.481795,-0.137473,1.526710,1.629051,-0.000765,-0.000875,-0.000009,-0.006040,-0.999028,-0.043657,0.004438,0.004338,0.004076,-57.422470,-52.641766,63.399017,,,,,,,1
1514403683.491775,-0.137610,1.526726,1.629202,0.001380,0.001245,0.001074,-0.006044,-0.999029,-0.043642,0.003465,0.004370,0.004076,-57.540451,-52.609585,63.493073,,,,,,,1
1514403683.501784,-0.137469,1.526731,1.629068,0.000312,0.000207,-0.001072,-0.006037,-0.999029,-0.043638,0.003351,0.005316,0.003584,-57.540451,-52.609585,63.493073,,,,,,,1
1514403683.511764,-0.137740,1.526742,1.629323,0.000294,-0.003035,0.001053,-0.006047,-0.999030,-0.043623,0.003545,0.005469,0.003783,-57.449890,-52.545486,63.677307,,,,,,,1
1514403683.521743,-0.137850,1.526740,1.629408,-0.000778,-0.004087,-0.000024,-0.006052,-0.999030,-0.043624,0.003992,0.004965,0.003936,-57.449890,-52.545486,63.677307,,,,,,,1
1514403683.531753,-0.137861,1.526744,1.629389,-0.000769,-0.000888,0.001060,-0.006052,-0.999030,-0.043620,0.003961,0.004981,0.004115,-57.595840,-52.556015,63.646515,,,,,,,1
1514403683.541732,-0.137802,1.526737,1.629347,-0.000751,0.002337,0.000006,-0.006050,-0.999030,-0.043626,0.004005,0.004996,0.004243,-57.595840,-52.556015,63.646515,,,,,,,1
1514403683.551711,-0.137874,1.526729,1.629414,-0.000767,-0.001948,-0.000013,-0.006054,-0.999029,-0.043633,0.004284,0.005407,0.004280,-57.608505,-52.602646,63.421173,,,,,,,1
1514403683.561721,-0.137853,1.526735,1.629402,-0.000759,0.001253,0.001070,-0.006053,-0.999029,-0.043629,0.003566,0.005026,0.003956,-57.608505,-52.602646,63.421173,,,,,,,1
1514403683.571700,-0.137820,1.526728,1.629355,-0.001842,-0.003013,-0.000020,-0.006052,-0.999029,-0.043635,0.003916,0.005194,0.004374,-57.539749,-52.736553,63.585785,,,,,,,1
1514403683.581679,-0.137816,1.526738,1.629363,0.000314,0.001263,0.000002,-0.006051,-0.999030,-0.043626,0.003625,0.004920,0.004578,-57.539749,-52.736553,63.585785,,,,,,,1
1514403683.591689,-0.137825,1.526750,1.629372,0.001379,0.000187,-0.000001,-0.006050,-0.999030,-0.043616,0.003654,0.004981,0.004630,-57.695328,-52.640614,63.577148,,,,,,,1
1514403683.601668,-0.137776,1.526745,1.629325,-0.001836,0.000188,0.001063,-0.006048,-0.999030,-0.043622,0.003485,0.005500,0.004362,-57.695328,-52.640614,63.577148,,,,,,,1
1514403683.611648,-0.137652,1.526749,1.629186,-0.000771,-0.001944,-0.000015,-0.006042,-0.999030,-0.043618,0.003647,0.004554,0.003564,-57.516800,-52.708725,63.468231,,,,,,,1
1514403683.621657,-0.137382,1.526749,1.628912,-0.000755,0.000227,-0.002144,-0.006030,-0.999030,-0.043619,0.003543,0.004401,0.003474,-57.516800,-52.708725,63.468231,,,,,,,1
1514403683.631637,-0.137477,1.526754,1.629016,0.000310,0.001250,0.001071,-0.006034,-0.999030,-0.043615,0.003455,0.004722,0.004019,-57.540970,-52.660614,63.406250,,,,,,,1
1514403683.641616,-0.137415,1.526742,1.628967,-0.000750,0.002344,0.000003,-0.006032,-0.999030,-0.043622,0.003881,0.005133,0.003827,-57.540970,-52.660614,63.406250,,,,,,,1
1514403683.651626,-0.137372,1.526740,1.628936,0.000316,0.001269,0.000000,-0.006031,-0.999030,-0.043623,0.003665,0.005270,0.004927,-57.626572,-52.626755,63.547302,,,,,,,1
1514403683.661605,-0.137355,1.526748,1.628928,0.000304,0.000212,-0.000006,-0.006029,-0.999030,-0.043618,0.003649,0.005042,0.004113,-57.595261,-52.478191,63.559937,,,,,,,1
1514403683.671584,-0.137472,1.526755,1.629040,0.000296,-0.001930,-0.000016,-0.006034,-0.999030,-0.043614,0.003730,0.004905,0.004475,-57.595261,-52.478191,63.559937,,,,,,,1
1514403683.681594,-0.137566,1.526750,1.629127,-0.000774,-0.001917,-0.000019,-0.006038,-0.999030,-0.043615,0.004238,0.005866,0.004492,-57.715256,-52.451344,63.576508,,,,,,,1
1514403683.691573,-0.137428,1.526751,1.628977,-0.000767,-0.000832,-0.001084,-0.006032,-0.999030,-0.043616,0.003087,0.006019,0.004004,-57.715256,-52.451344,63.576508,,,,,,,1
1514403683.701552,-0.137691,1.526758,1.629220,0.000289,-0.001925,0.001050,-0.006043,-0.999030,-0.043607,0.004471,0.004768,0.003873,-57.648727,-52.640057,63.399872,,,,,,,1
1514403683.711562,-0.137562,1.526763,1.629088,-0.000773,-0.000835,-0.000016,-0.006036,-0.999031,-0.043603,0.003854,0.004142,0.004174,-57.648727,-52.640057,63.399872,,,,,,,1
1514403683.721541,-0.137390,1.526757,1.628919,-0.000772,-0.000827,-0.000017,-0.006030,-0.999030,-0.043609,0.002764,0.005134,0.003525,-57.597382,-52.685780,63.415802,,,,,,,1
1514403683.731521,-0.137497,1.526762,1.629029,0.000298,0.000225,0.001059,-0.006034,-0.999031,-0.043605,0.002799,0.004448,0.004207,-57.597382,-52.685780,63.415802,,,,,,,1
1514403683.741530,-0.137122,1.526769,1.628651,-0.000770,-0.000787,-0.002157,-0.006016,-0.999031,-0.043601,0.003987,0.005195,0.004142,-57.470306,-52.482540,63.549072,,,,,,,1
1514403683.751510,-0.137239,1.526774,1.628761,0.001358,-0.000853,0.002124,-0.006021,-0.999031,-0.043597,0.003580,0.005348,0.004076,-57.470306,-52.482540,63.549072,,,,,,,1
1514403683.761489,-0.137314,1.526773,1.628849,0.000300,0.002404,-0.000004,-0.006024,-0.999031,-0.043598,0.003797,0.004082,0.004001,-57.475113,-52.588745,63.574158,,,,,,,1
1514403683.771499,-0.137417,1.526776,1.628961,0.000300,0.002404,-0.000004,-0.006029,-0.999031,-0.043594,0.004350,0.003914,0.003402,-57.475113,-52.588745,63.574158,,,,,,,1
1514403683.781478,-0.137301,1.526789,1.628850,0.001363,0.000278,-0.001082,-0.006021,-0.999032,-0.043579,0.003885,0.005456,0.004623,-57.430008,-52.336727,63.563019,,,,,,,1
1514403683.791457,-0.137136,1.526783,1.628677,0.000282,-0.001874,-0.000024,-0.006015,-0.999032,-0.043586,0.004016,0.005776,0.004111,-57.430008,-52.336727,63.563019,,,,,,,1
1514403683.801467,-0.137128,1.526788,1.628667,0.000292,0.000270,-0.000015,-0.006014,-0.999032,-0.043582,0.003557,0.005257,0.003497,-57.426712,-52.453918,63.438385,,,,,,,1
1514403683.811446,-0.136985,1.526792,1.628536,-0.000779,-0.000783,-0.001091,-0.006007,-0.999032,-0.043578,0.003856,0.004830,0.003707,-57.426712,-52.453918,63.438385,,,,,,,1
1514403683.821425,-0.136686,1.526786,1.628244,-0.000781,0.000314,-0.002158,-0.005995,-0.999032,-0.043584,0.003721,0.006539,0.004614,-57.541183,-52.701435,63.372772,,,,,,,1
1514403683.831435,-0.136779,1.526783,1.628328,0.000280,0.000266,0.001053,-0.005999,-0.999032,-0.043586,0.003741,0.006371,0.004325,-57.541183,-52.701435,63.372772,,,,,,,1
1514403683.841414,-0.136990,1.526779,1.628531,-0.000802,-0.002941,0.001036,-0.006009,-0.999031,-0.043587,0.003781,0.005471,0.004327,-57.428024,-52.613716,63.352936,,,,,,,1
1514403683.851394,-0.136852,1.526784,1.628390,0.001348,-0.000793,-0.000020,-0.006002,-0.999032,-0.043584,0.003912,0.004418,0.004170,-57.428024,-52.613716,63.352936,,,,,,,1
1514403683.861373,-0.136630,1.526801,1.628166,0.002423,0.000307,-0.002153,-0.005990,-0.999032,-0.043569,0.004006,0.004602,0.003133,-57.319061,-52.744217,63.403656,,,,,,,1
1514403683.871383,-0.136809,1.526792,1.628353,-0.000789,0.001363,-0.000015,-0.005999,-0.999032,-0.043575,0.004412,0.004617,0.004421,-57.319061,-52.744217,63.403656,,,,,,,1
1514403683.881362,-0.136519,1.526782,1.628045,-0.000806,-0.001829,-0.001100,-0.005988,-0.999032,-0.043588,0.003699,0.004525,0.004250,-57.517456,-52.686390,63.309204,,,,,,,1
1514403683.891341,-0.136386,1.526786,1.627903,-0.000802,-0.000758,-0.001095,-0.005981,-0.999032,-0.043584,0.003784,0.005135,0.004308,-57.517456,-52.686390,63.309204,,,,,,,1
1514403683.901351,-0.136476,1.526786,1.627992,0.000263,-0.000793,0.001045,-0.005986,-0.999032,-0.043585,0.003849,0.004891,0.004889,-57.425964,-52.482220,63.417847,,,,,,,1
1514403683.911330,-0.136449,1.526785,1.627958,0.000262,-0.001849,-0.000029,-0.005985,-0.999032,-0.043587,0.003909,0.004296,0.004494,-57.425964,-52.482220,63.417847,,,,,,,1
1514403683.921309,-0.136567,1.526794,1.628079,0.000262,0.000283,0.001049,-0.005988,-0.999032,-0.043577,0.004173,0.005044,0.003660,-57.318848,-52.611069,63.448334,,,,,,,1
1514403683.931319,-0.136692,1.526807,1.628212,0.001336,0.001350,0.001055,-0.005992,-0.999033,-0.043563,0.004588,0.005319,0.003844,-57.318848,-52.611069,63.448334,,,,,,,1
1514403683.941298,-0.136997,1.526794,1.628512,-0.000807,-0.000787,0.001041,-0.006007,-0.999032,-0.043570,0.004206,0.004876,0.004660,-57.363998,-52.682644,63.388855,,,,,,,1
1514403683.951278,-0.137123,1.526808,1.628646,0.001336,0.000275,0.001050,-0.006010,-0.999033,-0.043556,0.003325,0.004587,0.004035,-57.363998,-52.682644,63.388855,,,,,,,1
1514403683.961287,-0.137209,1.526808,1.628730,0.000256,-0.001843,-0.000033,-0.006014,-0.999033,-0.043557,0.003619,0.005090,0.003732,-57.520493,-52.628082,63.476837,,,,,,,1
1514403683.971267,-0.137197,1.526818,1.628728,0.000268,0.001370,-0.000019,-0.006012,-0.999033,-0.043548,0.003128,0.003657,0.004501,-57.520493,-52.628082,63.476837,,,,,,,1
1514403683.981246,-0.136802,1.526818,1.628329,0.000265,0.000316,-0.001094,-0.005995,-0.999033,-0.043549,0.002516,0.004038,0.003724,-57.434158,-52.477459,63.400848,,,,,,,1
1514403683.991256,-0.136826,1.526833,1.628346,0.000255,-0.000784,0.001040,-0.005994,-0.999034,-0.043535,0.003171,0.004908,0.004197,-57.434158,-52.477459,63.400848,,,,,,,1
1514403684.001235,-0.136642,1.526825,1.628169,-0.000810,0.000308,-0.000028,-0.005987,-0.999033,-0.043542,0.003683,0.004588,0.003869,-57.534103,-52.573074,63.462891,,,,,,,1
1514403684.011214,-0.136380,1.526828,1.627898,0.001329,-0.000757,-0.001098,-0.005975,-0.999034,-0.043538,0.003274,0.004923,0.004033,-57.534103,-52.573074,63.462891,,,,,,,1
1514403684.021224,-0.136360,1.526834,1.627877,0.000259,0.000305,-0.000026,-0.005973,-0.999034,-0.043534,0.003822,0.004359,0.004044,-57.427063,-52.810184,63.404297,,,,,,,1
1514403684.031203,-0.136464,1.526845,1.628002,0.000263,0.001376,-0.000021,-0.005977,-0.999034,-0.043525,0.003688,0.004573,0.004051,-57.427063,-52.810184,63.404297,,,,,,,1
1514403684.041183,-0.136337,1.526858,1.627886,0.000262,0.001376,-0.000022,-0.005970,-0.999035,-0.043516,0.002582,0.005352,0.004179,-57.442749,-52.461296,63.180634,,,,,,,1
1514403684.051192,-0.136200,1.526863,1.627753,-0.000812,0.000309,-0.000029,-0.005963,-0.999035,-0.043512,0.003812,0.005535,0.003778,-57.442749,-52.461296,63.180634,,,,,,,1
1514403684.061172,-0.136323,1.526872,1.627879,0.001326,0.000302,-0.000025,-0.005967,-0.999035,-0.043503,0.003877,0.005383,0.004288,-57.374481,-52.410004,63.323608,,,,,,,1
1514403684.071149,-0.136239,1.526855,1.627793,-0.001884,0.000315,-0.000031,-0.005966,-0.999035,-0.043521,0.004288,0.005596,0.004214,-57.374481,-52.410004,63.323608,,,,,,,1
1514403684.081159,-0.136263,1.526869,1.627803,0.001319,-0.000784,0.001039,-0.005965,-0.999035,-0.043507,0.005004,0.004941,0.004368,-57.368652,-52.589977,63.364136,,,,,,,1
1514403684.091138,-0.135979,1.526864,1.627511,0.000245,-0.002908,-0.000042,-0.005954,-0.999035,-0.043513,0.003573,0.004483,0.003917,-57.368652,-52.589977,63.364136,,,,,,,1
1514403684.101117,-0.136116,1.526877,1.627641,0.001323,0.000305,-0.000026,-0.005958,-0.999036,-0.043499,0.003028,0.004544,0.003537,-57.314484,-52.497143,63.406647,,,,,,,1
1514403684.111127,-0.136091,1.526876,1.627604,-0.000825,-0.001828,-0.000039,-0.005957,-0.999036,-0.043501,0.004217,0.004697,0.004622,-57.314484,-52.497143,63.406647,,,,,,,1
1514403684.121106,-0.136197,1.526876,1.627710,-0.000819,0.000300,0.001040,-0.005961,-0.999036,-0.043498,0.003932,0.005154,0.004267,-57.348282,-52.574009,63.439972,,,,,,,1
1514403684.131085,-0.136175,1.526879,1.627691,-0.000816,0.001371,0.001045,-0.005960,-0.999036,-0.043494,0.004281,0.004758,0.002982,-57.348282,-52.574009,63.439972,,,,,,,1
1514403684.141095,-0.136297,1.526885,1.627803,0.000249,-0.000778,0.001037,-0.005964,-0.999036,-0.043485,0.003797,0.005658,0.003049,-57.320877,-52.495766,63.359161,,,,,,,1
1514403684.151074,-0.136383,1.526883,1.627882,-0.000825,-0.001845,0.001030,-0.005968,-0.999036,-0.043487,0.004015,0.005368,0.004043,-57.320877,-52.495766,63.359161,,,,,,,1
1514403684.161054,-0.136327,1.526884,1.627841,-0.000812,0.002442,0.001049,-0.005966,-0.999036,-0.043488,0.004440,0.004667,0.003587,-57.349930,-52.473919,63.176544,,,,,,,1
1514403684.171063,-0.136311,1.526887,1.627822,0.000253,0.000310,-0.000028,-0.005964,-0.999036,-0.043485,0.004637,0.005094,0.003339,-57.349930,-52.473919,63.176544,,,,,,,1
1514403684.181043,-0.136443,1.526898,1.627956,0.001315,0.000294,0.001043,-0.005968,-0.999037,-0.043471,0.004809,0.006224,0.003966,-57.458725,-52.434578,63.384277,,,,,,,1
1514403684.191022,-0.136514,1.526897,1.628036,-0.000822,0.000317,-0.000030,-0.005972,-0.999037,-0.043473,0.004492,0.005384,0.003968,-57.458725,-52.434578,63.384277,,,,,,,1
1514403684.201032,-0.136622,1.526902,1.628144,0.000244,0.000314,-0.000029,-0.005975,-0.999037,-0.043464,0.005106,0.003935,0.004340,-57.375351,-52.653080,63.383820,,,,,,,1
1514403684.211011,-0.136550,1.526890,1.628065,-0.001899,-0.000748,-0.000038,-0.005974,-0.999036,-0.043477,0.004875,0.005109,0.004353,-57.375351,-52.653080,63.383820,,,,,,,1
1514403684.220990,-0.136282,1.526895,1.627800,0.000255,0.000338,-0.002168,-0.005962,-0.999036,-0.043473,0.003062,0.005079,0.004090,-57.323013,-52.601624,63.346344,,,,,,,1
1514403684.231000,-0.136409,1.526907,1.627929,0.001319,0.000305,-0.000027,-0.005965,-0.999037,-0.043459,0.004226,0.004805,0.004458,-57.323013,-52.601624,63.346344,,,,,,,1
1514403684.240979,-0.136409,1.526923,1.627939,0.003462,0.001366,-0.000018,-0.005963,-0.999038,-0.043445,0.004773,0.004745,0.004596,-57.502029,-52.606136,63.442932,,,,,,,1
1514403684.250958,-0.136280,1.526931,1.627806,0.000253,0.001379,-0.000024,-0.005956,-0.999038,-0.043436,0.003790,0.004455,0.004694,-57.502029,-52.606136,63.442932,,,,,,,1
1514403684.260968,-0.136322,1.526918,1.627846,-0.000833,-0.001844,0.001029,-0.005960,-0.999038,-0.043449,0.004388,0.004287,0.005226,-57.501831,-52.713417,63.281067,,,,,,,1
1514403684.270947,-0.136160,1.526919,1.627683,0.000250,0.000323,-0.001098,-0.005953,-0.999038,-0.043451,0.004732,0.005934,0.004068,-57.501831,-52.713417,63.281067,,,,,,,1
1514403684.280927,-0.136128,1.526922,1.627653,0.001313,0.000307,-0.000027,-0.005951,-0.999038,-0.043447,0.003693,0.005629,0.003866,-57.600494,-52.554127,63.507263,,,,,,,1
1514403684.290936,-0.136204,1.526919,1.627727,0.000241,0.000297,0.001041,-0.005955,-0.999038,-0.043449,0.003574,0.003951,0.002936,-57.600494,-52.554127,63.507263,,,,,,,1
1514403684.300916,-0.136171,1.526918,1.627692,0.000254,0.000318,-0.001097,-0.005954,-0.999038,-0.043450,0.003970,0.005263,0.003671,-57.570343,-52.441551,63.487976,,,,,,,1
1514403684.310895,-0.136323,1.526935,1.627835,0.001317,-0.000772,-0.000030,-0.005958,-0.999038,-0.043431,0.003776,0.005493,0.004231,-57.570343,-52.441551,63.487976,,,,,,,1
1514403684.320905,-0.136302,1.526938,1.627805,-0.000837,-0.000751,-0.000035,-0.005956,-0.999038,-0.043427,0.004156,0.005371,0.004990,-57.376587,-52.523663,63.416412,,,,,,,1
1514403684.330884,-0.136271,1.526937,1.627767,-0.000840,-0.000766,0.001034,-0.005955,-0.999038,-0.043429,0.003468,0.005157,0.004794,-57.376587,-52.523663,63.416412,,,,,,,1
1514403684.340863,-0.136339,1.526933,1.627842,-0.000825,0.000329,-0.001099,-0.005958,-0.999038,-0.043431,0.003135,0.005065,0.003819,-57.445709,-52.445938,63.380951,,,,,,,1
1514403684.350873,-0.136428,1.526937,1.627935,0.001316,0.001377,-0.000021,-0.005962,-0.999038,-0.043427,0.003932,0.004913,0.004090,-57.445709,-52.445938,63.380951,,,,,,,1
1514403684.360852,-0.136506,1.526933,1.628015,-0.000833,0.000318,-0.000031,-0.005965,-0.999038,-0.043429,0.003844,0.004959,0.004519,-57.328430,-52.638401,63.299408,,,,,,,1
1514403684.370831,-0.136368,1.526933,1.627867,0.001310,0.000324,-0.001096,-0.005959,-0.999038,-0.043426,0.003579,0.005249,0.004104,-57.328430,-52.638401,63.299408,,,,,,,1
1514403684.380841,-0.136245,1.526941,1.627735,0.001301,-0.000760,-0.000032,-0.005952,-0.999039,-0.043418,0.004289,0.005905,0.004248,-57.349442,-52.608536,63.415833,,,,,,,1
1514403684.390820,-0.136221,1.526944,1.627714,0.001305,0.000311,-0.000027,-0.005951,-0.999039,-0.043414,0.003708,0.005417,0.004993,-57.349442,-52.608536,63.415833,,,,,,,1
1514403684.400800,-0.136047,1.526939,1.627538,-0.000836,-0.000753,-0.000035,-0.005944,-0.999038,-0.043421,0.003808,0.004425,0.004694,-57.473999,-52.598568,63.356567,,,,,,,1
1514403684.410779,-0.136169,1.526956,1.627682,0.001312,0.002437,0.001053,-0.005947,-0.999039,-0.043407,0.004483,0.004960,0.004283,-57.473999,-52.598568,63.356567,,,,,,,1
1514403684.420789,-0.136144,1.526959,1.627665,0.000239,0.001386,-0.000023,-0.005946,-0.999039,-0.043403,0.004237,0.005448,0.003868,-57.430130,-52.636086,63.420319,,,,,,,1
1514403684.430768,-0.136145,1.526968,1.627659,0.001301,-0.000760,-0.000031,-0.005945,-0.999040,-0.043395,0.004602,0.004518,0.004668,-57.430130,-52.636086,63.420319,,,,,,,1
1514403684.440747,-0.136341,1.526965,1.627863,-0.000833,0.002450,0.001049,-0.005954,-0.999040,-0.043396,0.004489,0.004151,0.005097,-57.472473,-52.447838,63.450256,,,,,,,1
1514403684.450757,-0.136525,1.526951,1.628035,-0.000845,-0.000763,0.001034,-0.005964,-0.999039,-0.043409,0.003949,0.004929,0.004270,-57.472473,-52.447838,63.450256,,,,,,,1
1514403684.460736,-0.136372,1.526947,1.627866,-0.000843,-0.001806,-0.001110,-0.005957,-0.999039,-0.043411,0.003058,0.004181,0.003845,-57.484650,-52.546841,63.198730,,,,,,,1
1514403684.470715,-0.135962,1.526944,1.627450,-0.000832,0.000351,-0.002170,-0.005940,-0.999039,-0.043418,0.002797,0.004547,0.003379,-57.484650,-52.546841,63.198730,,,,,,,1
1514403684.480725,-0.135801,1.526940,1.627284,-0.000837,-0.000737,-0.001105,-0.005933,-0.999038,-0.043420,0.003186,0.005020,0.004403,-57.523376,-52.494274,63.355164,,,,,,,1
1514403684.490704,-0.135884,1.526936,1.627358,-0.000843,-0.000765,0.001034,-0.005937,-0.999038,-0.043422,0.004136,0.004577,0.003963,-57.523376,-52.494274,63.355164,,,,,,,1
1514403684.500684,-0.135823,1.526929,1.627301,-0.001906,0.000325,-0.000032,-0.005935,-0.999038,-0.043429,0.003845,0.004409,0.003970,-57.357300,-52.627403,63.435364,,,,,,,1
1514403684.510693,-0.136024,1.526928,1.627506,-0.000846,-0.000779,0.002104,-0.005944,-0.999038,-0.043431,0.003167,0.005386,0.004567,-57.357300,-52.627403,63.435364,,,,,,,1
1514403684.520673,-0.136220,1.526926,1.627707,0.001298,0.000300,0.001042,-0.005953,-0.999038,-0.043433,0.004488,0.005447,0.003882,-57.528778,-52.546413,63.251404,,,,,,,1
1514403684.530652,-0.135947,1.526932,1.627443,-0.000831,0.001409,-0.001096,-0.005941,-0.999038,-0.043429,0.004400,0.005157,0.004611,-57.528778,-52.546413,63.251404,,,,,,,1
1514403684.540662,-0.135793,1.526933,1.627288,-0.001918,-0.001796,-0.001112,-0.005934,-0.999038,-0.043431,0.003615,0.003723,0.004216,-57.542313,-52.647282,63.297058,,,,,,,1
1514403684.550641,-0.135634,1.526924,1.627114,-0.000844,-0.000729,-0.001106,-0.005928,-0.999038,-0.043439,0.003609,0.005294,0.003903,-57.542313,-52.647282,63.297058,,,,,,,1
1514403684.560620,-0.135466,1.526916,1.626937,-0.001906,-0.000731,-0.001106,-0.005922,-0.999037,-0.043446,0.003770,0.005263,0.004292,-57.680954,-52.541203,63.301941,,,,,,,1
1514403684.570630,-0.135552,1.526910,1.627013,-0.000842,-0.000764,0.001035,-0.005926,-0.999037,-0.043448,0.004629,0.005995,0.004004,-57.680954,-52.541203,63.301941,,,,,,,1
1514403684.580609,-0.135532,1.526915,1.626993,-0.000835,0.001397,-0.000025,-0.005924,-0.999037,-0.043445,0.004139,0.004668,0.004992,-57.554520,-52.646919,63.331696,,,,,,,1
1514403684.590588,-0.135446,1.526898,1.626910,-0.001909,0.000330,-0.000032,-0.005923,-0.999037,-0.043462,0.003405,0.005827,0.004141,-57.554520,-52.646919,63.331696,,,,,,,1
1514403684.600598,-0.135291,1.526899,1.626749,-0.000849,-0.000756,0.001035,-0.005916,-0.999037,-0.043464,0.004146,0.005766,0.003486,-57.590424,-52.655476,63.249969,,,,,,,1
1514403684.610577,-0.135370,1.526895,1.626824,-0.000846,-0.000742,-0.000034,-0.005920,-0.999036,-0.043466,0.003845,0.005643,0.005090,-57.590424,-52.655476,63.249969,,,,,,,1
1514403684.620557,-0.135333,1.526891,1.626783,0.000229,0.000309,0.001042,-0.005919,-0.999036,-0.043468,0.003981,0.005125,0.004650,-57.662750,-52.464764,63.168304,,,,,,,1
1514403684.630566,-0.135042,1.526884,1.626484,-0.000832,0.000357,-0.002168,-0.005907,-0.999036,-0.043476,0.004610,0.005094,0.004032,-57.662750,-52.464764,63.168304,,,,,,,1
1514403684.640546,-0.135081,1.526873,1.626538,-0.001900,0.001385,0.001044,-0.005910,-0.999036,-0.043488,0.005102,0.005002,0.004670,-57.583374,-52.587326,63.390320,,,,,,,1
1514403684.650525,-0.135034,1.526870,1.626493,0.000238,0.000320,-0.000026,-0.005909,-0.999035,-0.043490,0.003894,0.004803,0.004687,-57.583374,-52.587326,63.390320,,,,,,,1
1514403684.660535,-0.135013,1.526872,1.626463,0.000232,-0.001821,-0.000036,-0.005907,-0.999035,-0.043486,0.003176,0.005627,0.003859,-57.578125,-52.474144,63.141083,,,,,,,1
1514403684.670514,-0.134979,1.526867,1.626424,-0.000830,0.000325,-0.000028,-0.005906,-0.999035,-0.043488,0.004227,0.004238,0.003358,-57.578125,-52.474144,63.141083,,,,,,,1
1514403684.680493,-0.135179,1.526863,1.626622,-0.000828,0.000326,-0.000028,-0.005915,-0.999035,-0.043490,0.004084,0.005108,0.004062,-57.615814,-52.518867,63.174103,,,,,,,1
1514403684.690503,-0.135164,1.526867,1.626605,0.001305,-0.000768,0.001040,-0.005914,-0.999035,-0.043486,0.004449,0.005139,0.003570,-57.615814,-52.518867,63.174103,,,,,,,1
1514403684.700482,-0.135159,1.526873,1.626595,0.000241,-0.000750,-0.000031,-0.005912,-0.999036,-0.043478,0.004631,0.005429,0.004140,-57.687378,-52.385155,63.315918,,,,,,,1
1514403684.710462,-0.134990,1.526870,1.626420,-0.000832,-0.001817,-0.000038,-0.005906,-0.999035,-0.043484,0.003846,0.004498,0.003445,-57.687378,-52.385155,63.315918,,,,,,,1
1514403684.720471,-0.135059,1.526870,1.626499,0.000250,0.002468,-0.000017,-0.005909,-0.999035,-0.043486,0.002873,0.005230,0.004240,-57.547516,-52.534687,63.279999,,,,,,,1
1514403684.730451,-0.135165,1.526874,1.626599,-0.000832,-0.000741,-0.000034,-0.005913,-0.999036,-0.043482,0.003121,0.005292,0.004145,-57.547516,-52.534687,63.279999,,,,,,,1
1514403684.740430,-0.135131,1.526870,1.626561,0.000242,-0.000748,-0.000031,-0.005912,-0.999035,-0.043484,0.004188,0.004712,0.004010,-57.589447,-52.608234,63.360870,,,,,,,1
1514403684.750440,-0.134980,1.526875,1.626419,0.000246,0.000323,-0.000027,-0.005905,-0.999036,-0.043481,0.004059,0.005093,0.004098,-57.589447,-52.608234,63.360870,,,,,,,1
1514403684.760419,-0.134813,1.526863,1.626223,-0.000842,-0.003952,-0.000048,-0.005899,-0.999035,-0.043493,0.004785,0.004803,0.003195,-57.386124,-52.537113,63.367767,,,,,,,1
1514403684.770398,-0.134636,1.526857,1.626044,-0.000821,0.000362,-0.002168,-0.005892,-0.999035,-0.043501,0.004367,0.004726,0.003812,-57.386124,-52.537113,63.367767,,,,,,,1
1514403684.780408,-0.134616,1.526867,1.626039,0.001326,0.001390,-0.000019,-0.005890,-0.999035,-0.043491,0.003754,0.004681,0.004704,-57.422836,-52.585407,63.475250,,,,,,,1
1514403684.790387,-0.134480,1.526876,1.625911,0.000259,0.001409,-0.001091,-0.005883,-0.999036,-0.043483,0.003167,0.004330,0.004069,-57.422836,-52.585407,63.475250,,,,,,,1
1514403684.800366,-0.134533,1.526860,1.625965,-0.002954,0.001411,-0.000026,-0.005887,-0.999035,-0.043495,0.004209,0.004604,0.003563,-57.617447,-52.681507,63.429810,,,,,,,1
1514403684.810376,-0.134359,1.526856,1.625801,-0.000814,0.001402,-0.000023,-0.005880,-0.999035,-0.043502,0.004599,0.005962,0.003662,-57.617447,-52.681507,63.429810,,,,,,,1
1514403684.820355,-0.134310,1.526855,1.625767,-0.000816,0.000314,0.001043,-0.005878,-0.999035,-0.043504,0.003880,0.004650,0.003282,-57.380112,-52.451244,63.504547,,,,,,,1
1514403684.830335,-0.134391,1.526859,1.625868,0.001327,0.000320,-0.000023,-0.005882,-0.999035,-0.043500,0.004142,0.004101,0.003171,-57.380112,-52.451244,63.504547,,,,,,,1
1514403684.840344,-0.134331,1.526850,1.625804,-0.000810,0.000328,-0.000026,-0.005880,-0.999035,-0.043508,0.003347,0.005214,0.004323,-57.475983,-52.517189,63.510040,,,,,,,1
1514403684.850324,-0.134217,1.526861,1.625678,0.000252,-0.001818,-0.000033,-0.005874,-0.999035,-0.043499,0.003539,0.003826,0.003567,-57.475983,-52.517189,63.510040,,,,,,,1
1514403684.860303,-0.134222,1.526870,1.625675,0.000265,0.000322,-0.000023,-0.005873,-0.999035,-0.043490,0.003324,0.003659,0.003344,-57.537811,-52.629768,63.379242,,,,,,,1
1514403684.870282,-0.134442,1.526870,1.625897,0.001327,-0.000768,0.001044,-0.005882,-0.999035,-0.043486,0.003532,0.004956,0.004088,-57.537811,-52.629768,63.379242,,,,,,,1
1514403684.880292,-0.134579,1.526883,1.626026,0.000266,0.000323,-0.000022,-0.005886,-0.999036,-0.043472,0.004238,0.005506,0.004531,-57.412430,-52.600044,63.368774,,,,,,,1
1514403684.890271,-0.134513,1.526877,1.625969,0.000262,-0.000748,-0.000027,-0.005884,-0.999036,-0.043479,0.003855,0.005658,0.003745,-57.412430,-52.600044,63.368774,,,,,,,1
1514403684.900250,-0.134618,1.526880,1.626067,0.000260,-0.000761,0.001042,-0.005888,-0.999036,-0.043476,0.003599,0.005399,0.003879,-57.562012,-52.690804,63.650909,,,,,,,1
1514403684.910260,-0.134931,1.526869,1.626371,-0.001883,-0.001824,0.001034,-0.005903,-0.999035,-0.043483,0.004041,0.004254,0.003749,-57.562012,-52.690804,63.650909,,,,,,,1
1514403684.920239,-0.135058,1.526878,1.626491,0.001337,-0.001827,-0.000029,-0.005907,-0.999036,-0.043474,0.002932,0.004926,0.004167,-57.591171,-52.498089,63.284637,,,,,,,1
1514403684.930219,-0.135152,1.526880,1.626592,-0.000791,0.001395,-0.000019,-0.005911,-0.999036,-0.043470,0.003226,0.004712,0.004057,-57.591171,-52.498089,63.284637,,,,,,,1
1514403684.940228,-0.135260,1.526882,1.626692,0.000268,-0.000746,-0.000027,-0.005915,-0.999036,-0.043466,0.003718,0.005628,0.002558,-57.554794,-52.658661,63.299225,,,,,,,1
1514403684.950208,-0.135088,1.526877,1.626525,-0.001861,0.001419,-0.001091,-0.005909,-0.999036,-0.043473,0.003757,0.004971,0.003892,-57.554794,-52.658661,63.299225,,,,,,,1
1514403684.960187,-0.135047,1.526876,1.626486,0.000275,0.000342,-0.001092,-0.005907,-0.999036,-0.043475,0.003542,0.005704,0.003848,-57.505692,-52.549160,63.416534,,,,,,,1
1514403684.970197,-0.135142,1.526878,1.626590,0.000269,0.000313,0.001047,-0.005911,-0.999036,-0.043471,0.004766,0.004819,0.003295,-57.505692,-52.549160,63.416534,,,,,,,1
1514403684.980176,-0.134955,1.526867,1.626400,-0.001869,-0.000721,-0.001101,-0.005904,-0.999035,-0.043483,0.004882,0.005047,0.003597,-57.540192,-52.647629,63.371521,,,,,,,1
1514403684.990155,-0.135080,1.526874,1.626517,0.001348,0.000303,0.001049,-0.005908,-0.999036,-0.043474,0.003864,0.005124,0.003649,-57.540192,-52.647629,63.371521,,,,,,,1
1514403685.000165,-0.134927,1.526874,1.626367,-0.000789,0.000328,-0.000025,-0.005902,-0.999036,-0.043476,0.002606,0.004849,0.004901,-57.574295,-52.479187,63.223724,,,,,,,1
1514403685.010144,-0.134858,1.526861,1.626301,-0.002933,-0.000734,-0.000033,-0.005901,-0.999035,-0.043488,0.003688,0.006130,0.004227,-57.574295,-52.479187,63.223724,,,,,,,1
1514403685.020123,-0.134848,1.526865,1.626278,0.001345,-0.001822,-0.000031,-0.005900,-0.999035,-0.043485,0.003748,0.004132,0.002637,-57.621994,-52.405079,63.442261,,,,,,,1
1514403685.030133,-0.134806,1.526868,1.626248,-0.000782,0.001400,-0.000020,-0.005898,-0.999035,-0.043486,0.003548,0.005215,0.003859,-57.621994,-52.405079,63.442261,,,,,,,1
1514403685.040112,-0.134552,1.526878,1.625996,0.000296,0.000333,-0.001092,-0.005886,-0.999036,-0.043482,0.003078,0.005170,0.004205,-57.595749,-52.375656,63.360626,,,,,,,1
1514403685.050092,-0.134517,1.526883,1.625971,0.000297,0.001390,-0.000017,-0.005884,-0.999036,-0.043478,0.004496,0.005048,0.003988,-57.595749,-52.375656,63.360626,,,,,,,1
1514403685.060101,-0.134627,1.526887,1.626063,0.001346,-0.001835,0.001039,-0.005888,-0.999036,-0.043474,0.004713,0.005170,0.003709,-57.402512,-52.479675,63.230225,,,,,,,1
1514403685.070053,-0.134467,1.526887,1.625906,0.000290,0.000340,-0.001092,-0.005881,-0.999036,-0.043475,0.004188,0.005140,0.003787,-57.402512,-52.479675,63.230225,,,,,,,1
1514403685.080032,-0.134319,1.526890,1.625764,0.000294,0.000339,-0.001092,-0.005875,-0.999036,-0.043476,0.003464,0.005933,0.004017,-57.363281,-52.434608,63.342682,,,,,,,1
1514403685.090042,-0.134391,1.526884,1.625835,-0.000782,0.000314,0.001045,-0.005879,-0.999036,-0.043483,0.003483,0.004880,0.004161,-57.363281,-52.434608,63.342682,,,,,,,1
1514403685.100021,-0.134495,1.526887,1.625938,0.000293,0.000324,-0.000023,-0.005883,-0.999036,-0.043479,0.003610,0.004926,0.004462,-57.521683,-52.270351,63.246094,,,,,,,1
1514403685.110000,-0.134337,1.526889,1.625789,0.000301,0.002466,-0.000013,-0.005876,-0.999036,-0.043480,0.003160,0.005018,0.004403,-57.521683,-52.270351,63.246094,,,,,,,1
1514403685.120010,-0.134442,1.526893,1.625899,0.000290,-0.000764,0.001043,-0.005881,-0.999036,-0.043476,0.003805,0.005140,0.004597,-57.618134,-52.487389,63.320618,,,,,,,1
1514403685.129989,-0.134283,1.526895,1.625739,-0.000774,-0.000731,-0.001098,-0.005874,-0.999036,-0.043477,0.004149,0.003889,0.002981,-57.618134,-52.487389,63.320618,,,,,,,1
1514403685.139968,-0.134221,1.526885,1.625678,0.000300,0.000319,-0.000022,-0.005872,-0.999036,-0.043484,0.003385,0.004422,0.003064,-57.418777,-52.405025,63.449799,,,,,,,1
1514403685.149978,-0.134450,1.526889,1.625900,0.001363,-0.000770,0.001045,-0.005881,-0.999036,-0.043480,0.003699,0.005262,0.003319,-57.418777,-52.405025,63.449799,,,,,,,1
1514403685.159957,-0.134426,1.526897,1.625887,0.000308,0.001388,-0.000017,-0.005880,-0.999037,-0.043476,0.003972,0.005613,0.003696,-57.524933,-52.498337,63.505798,,,,,,,1
1514403685.169937,-0.134403,1.526895,1.625856,0.000296,-0.001826,-0.000031,-0.005879,-0.999036,-0.043477,0.004216,0.005186,0.004491,-57.524933,-52.498337,63.505798,,,,,,,1
1514403685.179946,-0.134290,1.526905,1.625736,0.000297,-0.000751,-0.000027,-0.005873,-0.999037,-0.043468,0.003965,0.005385,0.004634,-57.557236,-52.429371,63.380615,,,,,,,1
1514403685.189926,-0.134272,1.526910,1.625727,0.000302,0.001377,0.001052,-0.005871,-0.999037,-0.043463,0.003811,0.005263,0.004187,-57.557236,-52.429371,63.380615,,,,,,,1
1514403685.199905,-0.134513,1.526919,1.625972,0.001370,0.000299,0.001049,-0.005881,-0.999038,-0.043454,0.004523,0.004210,0.002957,-57.467484,-52.385258,63.462677,,,,,,,1
1514403685.209915,-0.134500,1.526931,1.625969,0.002450,0.001394,-0.001083,-0.005879,-0.999038,-0.043444,0.004689,0.004028,0.003711,-57.467484,-52.385258,63.462677,,,,,,,1
1514403685.219894,-0.134358,1.526937,1.625832,-0.000775,-0.000729,-0.001099,-0.005872,-0.999038,-0.043440,0.003583,0.004669,0.004622,-57.583054,-52.397243,63.400452,,,,,,,1
1514403685.229873,-0.134322,1.526938,1.625801,-0.000774,0.000327,-0.000025,-0.005871,-0.999038,-0.043442,0.003780,0.004654,0.003708,-57.583054,-52.397243,63.400452,,,,,,,1
1514403685.239883,-0.134411,1.526935,1.625881,-0.000771,-0.000751,-0.000029,-0.005875,-0.999038,-0.043443,0.003388,0.004272,0.003710,-57.577148,-52.467052,63.379547,,,,,,,1
1514403685.249862,-0.134591,1.526928,1.626071,-0.000770,0.000306,0.001045,-0.005884,-0.999038,-0.043450,0.003885,0.005431,0.004204,-57.577148,-52.467052,63.379547,,,,,,,1
1514403685.259841,-0.134575,1.526934,1.626054,0.000308,0.000326,-0.001092,-0.005882,-0.999038,-0.043446,0.004417,0.005538,0.003239,-57.507874,-52.487656,63.339233,,,,,,,1
1514403685.269851,-0.134545,1.526936,1.626024,-0.000769,-0.000755,-0.000029,-0.005881,-0.999038,-0.043447,0.003257,0.005188,0.003346,-57.507874,-52.487656,63.339233,,,,,,,1
1514403685.279830,-0.134260,1.526937,1.625742,0.001374,0.000324,-0.001091,-0.005869,-0.999038,-0.043448,0.004129,0.004623,0.004157,-57.432449,-52.451160,63.566071,,,,,,,1
1514403685.289810,-0.134377,1.526946,1.625857,0.001364,-0.000776,0.001044,-0.005873,-0.999039,-0.043439,0.003675,0.005554,0.004346,-57.432449,-52.451160,63.566071,,,,,,,1
1514403685.299820,-0.134224,1.526948,1.625710,-0.000760,0.001385,-0.000020,-0.005866,-0.999039,-0.043440,0.003516,0.005646,0.004545,-57.205795,-52.331596,63.240051,,,,,,,1
1514403685.309799,-0.134067,1.526947,1.625550,0.000309,0.000324,-0.001092,-0.005859,-0.999039,-0.043441,0.004226,0.004471,0.004546,-57.205795,-52.331596,63.240051,,,,,,,1
1514403685.319778,-0.134032,1.526939,1.625496,-0.000770,-0.001814,-0.001103,-0.005859,-0.999038,-0.043448,0.003631,0.004669,0.003714,-57.339920,-52.445698,63.343262,,,,,,,1
1514403685.329757,-0.134006,1.526940,1.625463,0.000305,0.000310,-0.000022,-0.005857,-0.999038,-0.043449,0.003981,0.005111,0.003837,-57.339920,-52.445698,63.343262,,,,,,,1
1514403685.339767,-0.133994,1.526949,1.625459,0.001372,0.000307,-0.000020,-0.005856,-0.999039,-0.043440,0.003079,0.004013,0.004270,-57.527405,-52.271385,63.299774,,,,,,,1
1514403685.349746,-0.134036,1.526969,1.625494,0.003508,-0.000772,-0.000021,-0.005855,-0.999040,-0.043420,0.003612,0.005128,0.003594,-57.527405,-52.271385,63.299774,,,,,,,1
1514403685.359726,-0.133974,1.526965,1.625447,0.000308,0.001379,-0.000017,-0.005853,-0.999040,-0.043426,0.004739,0.004960,0.003387,-57.404495,-52.348888,63.333649,,,,,,,1
1514403685.369735,-0.133928,1.526955,1.625395,-0.000765,0.000313,-0.000023,-0.005852,-0.999039,-0.043433,0.004357,0.004990,0.003989,-57.404495,-52.348888,63.333649,,,,,,,1
1514403685.379715,-0.133899,1.526956,1.625366,0.000298,-0.000762,-0.000026,-0.005851,-0.999039,-0.043434,0.004310,0.005448,0.004402,-57.302216,-52.370247,63.405060,,,,,,,1
1514403685.389694,-0.133647,1.526968,1.625123,0.001375,0.000320,-0.001089,-0.005838,-0.999040,-0.043424,0.003290,0.004991,0.003537,-57.302216,-52.370247,63.405060,,,,,,,1
1514403685.399704,-0.133174,1.526948,1.624663,-0.002898,0.001405,-0.001091,-0.005820,-0.999039,-0.043447,0.004584,0.005905,0.003896,-57.347443,-52.517860,63.409698,,,,,,,1
1514403685.409683,-0.133390,1.526945,1.624873,-0.000775,-0.000789,0.002112,-0.005830,-0.999039,-0.043448,0.003969,0.004578,0.003287,-57.347443,-52.517860,63.409698,,,,,,,1
1514403685.419662,-0.133269,1.526950,1.624739,0.000299,-0.001838,-0.000029,-0.005824,-0.999039,-0.043444,0.003368,0.005142,0.002825,-57.304901,-52.437645,63.426086,,,,,,,1
1514403685.429672,-0.133243,1.526947,1.624708,0.001372,-0.000771,-0.000022,-0.005823,-0.999039,-0.043445,0.003855,0.005097,0.004459,-57.304901,-52.437645,63.426086,,,,,,,1
1514403685.439651,-0.133095,1.526954,1.624564,0.000309,0.000319,-0.001088,-0.005816,-0.999039,-0.043441,0.004428,0.004303,0.004226,-57.332306,-52.270435,63.497711,,,,,,,1
1514403685.449630,-0.133199,1.526955,1.624659,0.001368,-0.001842,-0.000026,-0.005820,-0.999039,-0.043437,0.003638,0.004029,0.003947,-57.332306,-52.270435,63.497711,,,,,,,1
1514403685.459640,-0.133396,1.526949,1.624849,-0.001846,-0.002916,0.001034,-0.005830,-0.999039,-0.043443,0.003861,0.004410,0.003175,-57.350235,-52.356548,63.364868,,,,,,,1
1514403685.469619,-0.133123,1.526943,1.624558,-0.000766,-0.001821,-0.001099,-0.005819,-0.999039,-0.043450,0.003927,0.004959,0.005028,-57.350235,-52.356548,63.364868,,,,,,,1
1514403685.479599,-0.133108,1.526944,1.624521,-0.000771,-0.001833,-0.000029,-0.005818,-0.999039,-0.043451,0.003468,0.005493,0.004343,-57.413406,-52.271641,63.324432,,,,,,,1
1514403685.489608,-0.133184,1.526938,1.624590,0.000303,-0.000766,-0.000022,-0.005822,-0.999038,-0.043458,0.003793,0.005096,0.004502,-57.413406,-52.271641,63.324432,,,,,,,1
1514403685.499588,-0.133183,1.526948,1.624593,0.000301,0.000311,-0.000017,-0.005821,-0.999039,-0.043448,0.004020,0.004700,0.003791,-57.547653,-52.472324,63.487976,,,,,,,1
1514403685.509567,-0.132925,1.526954,1.624337,0.000304,0.000326,-0.001087,-0.005809,-0.999039,-0.043444,0.003551,0.004364,0.003466,-57.547653,-52.472324,63.487976,,,,,,,1
1514403685.519577,-0.133263,1.526949,1.624661,-0.000774,-0.000787,0.002117,-0.005824,-0.999039,-0.043445,0.003871,0.004440,0.004307,-57.682129,-52.381245,63.272430,,,,,,,1
1514403685.529556,-0.133234,1.526947,1.624629,0.000306,0.000309,-0.000016,-0.005823,-0.999039,-0.043447,0.004129,0.005005,0.004628,-57.682129,-52.381245,63.272430,,,,,,,1
1514403685.539535,-0.133243,1.526955,1.624630,0.001377,-0.000770,-0.000017,-0.005822,-0.999039,-0.043437,0.004281,0.005600,0.003993,-57.424316,-52.442036,63.346008,,,,,,,1
1514403685.549545,-0.133379,1.526971,1.624770,0.001377,-0.000770,-0.000017,-0.005826,-0.999040,-0.043422,0.004224,0.005861,0.002757,-57.424316,-52.442036,63.346008,,,,,,,1
1514403685.559524,-0.133501,1.526981,1.624896,0.000300,0.000299,0.001055,-0.005830,-0.999040,-0.043412,0.003740,0.005235,0.003495,-57.471970,-52.393768,63.459839,,,,,,,1
1514403685.569503,-0.133637,1.526992,1.625021,0.001366,-0.000776,0.001052,-0.005835,-0.999041,-0.043403,0.003729,0.005770,0.004233,-57.471970,-52.393768,63.459839,,,,,,,1
1514403685.579513,-0.133500,1.526995,1.624880,0.001377,0.000323,-0.001081,-0.005828,-0.999041,-0.043399,0.003723,0.004305,0.004031,-57.484406,-52.535145,63.253204,,,,,,,1
1514403685.589492,-0.133203,1.526990,1.624592,-0.000761,0.001388,-0.000010,-0.005816,-0.999041,-0.043405,0.003909,0.004915,0.003610,-57.484406,-52.535145,63.253204,,,,,,,1
1514403685.599472,-0.133202,1.526994,1.624577,0.000298,-0.000755,-0.000017,-0.005816,-0.999041,-0.043401,0.003847,0.004626,0.003011,-57.485535,-52.393074,63.245605,,,,,,,1
1514403685.609481,-0.133320,1.527003,1.624698,0.000295,-0.000769,0.001053,-0.005819,-0.999041,-0.043391,0.003531,0.004626,0.004329,-57.485535,-52.393074,63.245605,,,,,,,1
1514403685.619461,-0.133398,1.526998,1.624782,-0.000757,0.001387,-0.000007,-0.005823,-0.999041,-0.043393,0.003321,0.003680,0.003857,-57.531128,-52.512245,63.289764,,,,,,,1
1514403685.629440,-0.133330,1.526986,1.624711,-0.000757,0.001387,-0.000007,-0.005822,-0.999040,-0.043405,0.004677,0.004030,0.003747,-57.531128,-52.512245,63.289764,,,,,,,1
1514403685.639450,-0.133286,1.526981,1.624666,-0.000770,-0.000750,-0.000017,-0.005821,-0.999040,-0.043412,0.004493,0.004976,0.003556,-57.396469,-52.583122,63.399933,,,,,,,1
1514403685.649429,-0.133414,1.526992,1.624794,-0.000773,-0.000764,0.001053,-0.005825,-0.999041,-0.043402,0.003918,0.005556,0.004370,-57.396469,-52.583122,63.399933,,,,,,,1
1514403685.659408,-0.133260,1.526992,1.624643,0.000307,0.000316,-0.000009,-0.005818,-0.999041,-0.043403,0.003682,0.005373,0.004020,-57.285904,-52.442989,63.494141,,,,,,,1
1514403685.669418,-0.133247,1.526998,1.624629,0.000303,-0.000756,-0.000014,-0.005817,-0.999041,-0.043399,0.003422,0.004671,0.003970,-57.285904,-52.442989,63.494141,,,,,,,1
1514403685.679397,-0.133344,1.526992,1.624711,0.000306,-0.000756,-0.000013,-0.005822,-0.999041,-0.043400,0.003197,0.004198,0.004231,-57.568268,-52.302132,63.449677,,,,,,,1
1514403685.689376,-0.133456,1.526996,1.624820,-0.000764,-0.000752,-0.000015,-0.005826,-0.999041,-0.043396,0.004209,0.005038,0.004441,-57.568268,-52.302132,63.449677,,,,,,,1
1514403685.699386,-0.133303,1.526996,1.624671,0.000318,0.001400,-0.001073,-0.005820,-0.999041,-0.043397,0.003226,0.005800,0.003679,-57.576233,-52.321423,63.346313,,,,,,,1
1514403685.709365,-0.133344,1.526981,1.624706,-0.001832,-0.000748,-0.000017,-0.005824,-0.999040,-0.043414,0.003733,0.005205,0.004199,-57.576233,-52.321423,63.346313,,,,,,,1
1514403685.719345,-0.133212,1.526987,1.624567,0.000307,-0.000754,-0.000012,-0.005817,-0.999041,-0.043410,0.004307,0.004656,0.003035,-57.684219,-52.315510,63.330322,,,,,,,1
1514403685.729354,-0.133285,1.526975,1.624635,-0.000759,0.000321,-0.000009,-0.005821,-0.999040,-0.043417,0.003761,0.004930,0.003302,-57.684219,-52.315510,63.330322,,,,,,,1
1514403685.739334,-0.133280,1.526982,1.624623,0.000304,-0.000750,-0.000012,-0.005821,-0.999040,-0.043413,0.002937,0.005800,0.003450,-57.546478,-52.322762,63.528107,,,,,,,1
1514403685.749313,-0.133382,1.526986,1.624735,0.001382,0.001388,-0.000001,-0.005824,-0.999040,-0.043408,0.003841,0.005480,0.003644,-57.546478,-52.322762,63.528107,,,,,,,1
1514403685.759292,-0.133320,1.526974,1.624676,-0.000760,0.000325,-0.000009,-0.005823,-0.999040,-0.043420,0.003611,0.004991,0.004815,-57.573196,-52.392612,63.650909,,,,,,,1
1514403685.769302,-0.133414,1.526977,1.624778,-0.000759,0.001382,0.001066,-0.005827,-0.999040,-0.043416,0.004072,0.006242,0.003575,-57.573196,-52.392612,63.650909,,,,,,,1
1514403685.779281,-0.133668,1.526987,1.625027,0.000303,-0.000763,0.001058,-0.005837,-0.999041,-0.043407,0.003823,0.006334,0.003093,-57.575867,-52.497448,63.514313,,,,,,,1
1514403685.789260,-0.133409,1.526984,1.624751,-0.000765,-0.001801,-0.001088,-0.005826,-0.999040,-0.043408,0.004544,0.004976,0.003323,-57.575867,-52.497448,63.514313,,,,,,,1
1514403685.799270,-0.133230,1.526979,1.624581,-0.000758,0.000328,-0.000008,-0.005819,-0.999040,-0.043415,0.004811,0.004335,0.003162,-57.576767,-52.482498,63.335052,,,,,,,1
1514403685.809249,-0.133198,1.526978,1.624553,0.000312,0.000324,-0.000006,-0.005817,-0.999040,-0.043416,0.004673,0.005311,0.003759,-57.576767,-52.482498,63.335052,,,,,,,1
1514403685.819229,-0.132979,1.526992,1.624325,0.001381,-0.000752,-0.000009,-0.005806,-0.999041,-0.043406,0.003334,0.005770,0.003123,-57.576401,-52.474079,63.435333,,,,,,,1
1514403685.829238,-0.132812,1.526987,1.624155,-0.000752,0.000342,-0.001077,-0.005800,-0.999040,-0.043413,0.004060,0.004686,0.003282,-57.576401,-52.474079,63.435333,,,,,,,1
1514403685.839218,-0.132752,1.526976,1.624105,-0.001828,0.001395,0.001065,-0.005798,-0.999040,-0.043420,0.003067,0.004548,0.003716,-57.484619,-52.595444,63.334961,,,,,,,1
1514403685.849197,-0.132606,1.526981,1.623967,0.000318,0.001416,-0.001071,-0.005791,-0.999040,-0.043416,0.003365,0.005678,0.003712,-57.484619,-52.595444,63.334961,,,,,,,1
1514403685.859207,-0.132827,1.526986,1.624199,0.000319,0.001399,-0.000000,-0.005800,-0.999040,-0.043412,0.003588,0.004778,0.004059,-57.622299,-52.445187,63.512482,,,,,,,1
1514403685.869186,-0.132763,1.526976,1.624135,-0.001820,0.001408,-0.000004,-0.005799,-0.999040,-0.043423,0.003556,0.005235,0.004605,-57.622299,-52.445187,63.512482,,,,,,,1
1514403685.879165,-0.132823,1.526963,1.624194,-0.000763,-0.000749,0.001058,-0.005803,-0.999039,-0.043430,0.003438,0.005524,0.003925,-57.634338,-52.478371,63.296570,,,,,,,1
1514403685.889175,-0.132923,1.526967,1.624297,0.001381,0.000313,0.001066,-0.005807,-0.999040,-0.043426,0.004128,0.005143,0.002624,-57.634338,-52.478371,63.296570,,,,,,,1
1514403685.899154,-0.132913,1.526971,1.624285,0.001382,0.000332,-0.000004,-0.005806,-0.999040,-0.043422,0.004158,0.005021,0.003536,-57.588715,-52.389500,63.394562,,,,,,,1
1514403685.909133,-0.133128,1.526968,1.624493,0.000305,-0.000749,0.001059,-0.005815,-0.999040,-0.043424,0.003542,0.004731,0.002942,-57.588715,-52.389500,63.394562,,,,,,,1
1514403685.919143,-0.133074,1.526956,1.624431,-0.001825,-0.000713,-0.001083,-0.005815,-0.999039,-0.043436,0.003541,0.005600,0.004037,-57.539551,-52.320507,63.334015,,,,,,,1
1514403685.929122,-0.133020,1.526949,1.624385,-0.000755,-0.000717,-0.001082,-0.005813,-0.999039,-0.043442,0.003860,0.006180,0.004090,-57.539551,-52.320507,63.334015,,,,,,,1
1514403685.939102,-0.132977,1.526942,1.624340,-0.000762,-0.001800,-0.000017,-0.005812,-0.999039,-0.043449,0.003569,0.004730,0.004005,-57.696579,-52.261833,63.329803,,,,,,,1
1514403685.949111,-0.132947,1.526944,1.624315,0.000319,0.001409,-0.000001,-0.005811,-0.999039,-0.043450,0.004209,0.005661,0.003411,-57.696579,-52.261833,63.329803,,,,,,,1
1514403685.959091,-0.132839,1.526953,1.624198,0.000327,0.001406,-0.000001,-0.005805,-0.999039,-0.043440,0.003714,0.005005,0.004332,-57.585419,-52.433449,63.611328,,,,,,,1
1514403685.969070,-0.132462,1.526959,1.623820,0.000329,0.000363,-0.002145,-0.005788,-0.999039,-0.043436,0.003483,0.004471,0.003702,-57.585419,-52.433449,63.611328,,,,,,,1
1514403685.979080,-0.132391,1.526949,1.623758,-0.000751,-0.000747,0.001057,-0.005786,-0.999039,-0.043448,0.003467,0.004685,0.003897,-57.577789,-52.408295,63.297272,,,,,,,1
1514403685.989059,-0.132326,1.526936,1.623696,-0.000745,-0.000718,-0.001082,-0.005785,-0.999038,-0.043460,0.004594,0.003830,0.003635,-57.577789,-52.408295,63.297272,,,,,,,1
1514403685.999038,-0.132424,1.526935,1.623787,0.000317,-0.000746,0.001058,-0.005789,-0.999038,-0.043461,0.004111,0.004287,0.003330,-57.561646,-52.353123,63.349030,,,,,,,1
1514403686.009048,-0.132416,1.526941,1.623773,0.000320,-0.000732,-0.000012,-0.005788,-0.999039,-0.043457,0.003377,0.005508,0.003891,-57.561646,-52.353123,63.349030,,,,,,,1
1514403686.019027,-0.132271,1.526950,1.623645,-0.000726,0.002495,-0.001069,-0.005781,-0.999039,-0.043452,0.003874,0.005310,0.004146,-57.644791,-52.494019,63.252625,,,,,,,1
1514403686.029007,-0.132345,1.526942,1.623716,-0.000752,-0.002889,0.001046,-0.005785,-0.999039,-0.043459,0.004382,0.003662,0.003893,-57.644791,-52.494019,63.252625,,,,,,,1
1514403686.039016,-0.132318,1.526940,1.623686,-0.000750,0.000335,0.001058,-0.005784,-0.999038,-0.043460,0.003785,0.005264,0.004046,-57.582672,-52.367378,63.261169,,,,,,,1
1514403686.048996,-0.132434,1.526949,1.623811,0.000323,0.000345,-0.000010,-0.005788,-0.999039,-0.043450,0.003896,0.005036,0.002618,-57.582672,-52.367378,63.261169,,,,,,,1
1514403686.058975,-0.132144,1.526951,1.623547,0.000342,0.002479,0.000000,-0.005775,-0.999039,-0.043451,0.003395,0.004242,0.003275,-57.538712,-52.441399,63.375824,,,,,,,1
1514403686.068992,-0.132272,1.526959,1.623661,0.000330,-0.000734,-0.000014,-0.005780,-0.999039,-0.043441,0.002850,0.004075,0.003830,-57.538712,-52.441399,63.375824,,,,,,,1
1514403686.078971,-0.132253,1.526964,1.623646,-0.000738,0.000344,-0.000012,-0.005778,-0.999040,-0.043437,0.003215,0.004640,0.004527,-57.588913,-52.501167,63.346344,,,,,,,1
1514403686.088950,-0.132202,1.526954,1.623601,-0.000738,0.000344,-0.000012,-0.005777,-0.999039,-0.043444,0.003931,0.005371,0.003527,-57.588913,-52.501167,63.346344,,,,,,,1
1514403686.098960,-0.132151,1.526947,1.623540,-0.000746,-0.000722,-0.000019,-0.005776,-0.999039,-0.043455,0.003884,0.004822,0.003294,-57.776199,-52.430138,63.475311,,,,,,,1
1514403686.108939,-0.132208,1.526937,1.623610,-0.000745,0.000335,0.001056,-0.005780,-0.999038,-0.043462,0.004208,0.004425,0.004002,-57.776199,-52.430138,63.475311,,,,,,,1
1514403686.118918,-0.132314,1.526944,1.623721,-0.000738,0.001404,0.001060,-0.005784,-0.999039,-0.043457,0.003464,0.004745,0.004089,-57.745682,-52.378376,63.462982,,,,,,,1
1514403686.128928,-0.132410,1.526945,1.623824,0.001405,0.001410,-0.000006,-0.005787,-0.999039,-0.043453,0.004292,0.005539,0.003796,-57.745682,-52.378376,63.462982,,,,,,,1
1514403686.138907,-0.132403,1.526948,1.623809,-0.000748,-0.001793,-0.000025,-0.005787,-0.999039,-0.043449,0.003757,0.005280,0.003502,-57.620544,-52.373798,63.484894,,,,,,,1
1514403686.148887,-0.132262,1.526952,1.623669,-0.000741,-0.000707,-0.001090,-0.005781,-0.999039,-0.043450,0.003614,0.005082,0.003106,-57.620544,-52.373798,63.484894,,,,,,,1
1514403686.158896,-0.132751,1.526960,1.624158,0.000334,0.000308,0.002125,-0.005801,-0.999039,-0.043440,0.003344,0.005616,0.002745,-57.594864,-52.534389,63.515808,,,,,,,1
1514403686.168876,-0.132600,1.526957,1.624003,-0.000734,-0.000731,-0.000020,-0.005794,-0.999039,-0.043441,0.003414,0.005143,0.004150,-57.594864,-52.534389,63.515808,,,,,,,1
1514403686.178855,-0.132835,1.526963,1.624243,0.000331,0.000328,0.001054,-0.005803,-0.999039,-0.043432,0.004140,0.004121,0.002904,-57.493134,-52.424625,63.595978,,,,,,,1
1514403686.188865,-0.133031,1.526961,1.624454,0.000332,0.001385,0.002128,-0.005812,-0.999039,-0.043433,0.003905,0.005097,0.003546,-57.493134,-52.424625,63.595978,,,,,,,1
1514403686.198844,-0.132986,1.526955,1.624413,-0.000745,-0.001812,0.001041,-0.005811,-0.999039,-0.043439,0.003263,0.004990,0.005033,-57.462234,-52.430683,63.479736,,,,,,,1
1514403686.208823,-0.132839,1.526960,1.624274,0.000336,0.000340,-0.000017,-0.005804,-0.999039,-0.043435,0.003469,0.003907,0.004433,-57.462234,-52.430683,63.479736,,,,,,,1
1514403686.218802,-0.132700,1.526965,1.624138,-0.000721,0.000367,-0.002159,-0.005797,-0.999040,-0.043430,0.003936,0.003892,0.002674,-57.689484,-52.386265,63.516846,,,,,,,1
1514403686.228812,-0.132772,1.526960,1.624215,0.000339,-0.000738,-0.000023,-0.005801,-0.999039,-0.043437,0.003421,0.004426,0.003993,-57.689484,-52.386265,63.516846,,,,,,,1
1514403686.238791,-0.132872,1.526966,1.624326,0.000341,0.001393,0.001055,-0.005805,-0.999040,-0.043432,0.002860,0.005189,0.002981,-57.738739,-52.359520,63.451202,,,,,,,1
1514403686.248771,-0.132878,1.526975,1.624329,0.001397,-0.002881,-0.000032,-0.005804,-0.999040,-0.043423,0.002554,0.005266,0.003185,-57.738739,-52.359520,63.451202,,,,,,,1
1514403686.258780,-0.133070,1.526969,1.624532,0.000346,0.002462,0.001058,-0.005813,-0.999040,-0.043424,0.004302,0.005036,0.002271,-57.711807,-52.426319,63.522003,,,,,,,1
1514403686.268760,-0.133121,1.526954,1.624573,-0.001813,-0.002885,0.001031,-0.005817,-0.999039,-0.043441,0.004185,0.004761,0.002853,-57.711807,-52.426319,63.522003,,,,,,,1
1514403686.278739,-0.133229,1.526958,1.624683,0.001406,0.000317,0.001049,-0.005821,-0.999039,-0.043436,0.003441,0.004654,0.004008,-57.725159,-52.446922,63.458710,,,,,,,1
1514403686.288749,-0.133213,1.526964,1.624672,-0.000726,0.001411,-0.000020,-0.005820,-0.999040,-0.043432,0.003562,0.005067,0.002782,-57.725159,-52.446922,63.458710,,,,,,,1
1514403686.298728,-0.133311,1.526968,1.624773,0.000338,-0.000739,-0.000029,-0.005824,-0.999040,-0.043428,0.003718,0.004960,0.003236,-57.740952,-52.717056,63.527649,,,,,,,1
1514403686.308707,-0.133502,1.526958,1.624961,-0.001804,-0.000745,0.001037,-0.005833,-0.999039,-0.043434,0.003254,0.004639,0.004372,-57.740952,-52.717056,63.527649,,,,,,,1
1514403686.318717,-0.133367,1.526966,1.624832,0.000338,0.000352,-0.001096,-0.005827,-0.999040,-0.043430,0.003751,0.005448,0.002994,-57.535721,-52.531414,63.519440,,,,,,,1
1514403686.328696,-0.133461,1.526962,1.624922,-0.000735,0.000342,-0.000029,-0.005831,-0.999039,-0.043431,0.003725,0.005509,0.003636,-57.535721,-52.531414,63.519440,,,,,,,1
1514403686.338675,-0.133348,1.526978,1.624808,0.002488,-0.000725,-0.002167,-0.005824,-0.999040,-0.043416,0.003749,0.004808,0.003973,-57.518890,-52.439751,63.588348,,,,,,,1
1514403686.348686,-0.133490,1.526997,1.624958,0.001406,-0.001835,0.001035,-0.005828,-0.999041,-0.043396,0.003936,0.004885,0.004090,-57.518890,-52.439751,63.588348,,,,,,,1
1514403686.358665,-0.133497,1.527004,1.624955,0.001412,-0.000751,-0.000032,-0.005827,-0.999041,-0.043387,0.003858,0.004382,0.004996,-57.541595,-52.294144,63.388367,,,,,,,1
1514403686.368644,-0.133453,1.527003,1.624925,0.000347,0.001382,0.001046,-0.005825,-0.999041,-0.043388,0.003063,0.004504,0.003669,-57.541595,-52.294144,63.388367,,,,,,,1
1514403686.378654,-0.133330,1.527015,1.624801,0.002490,0.000328,-0.001096,-0.005818,-0.999042,-0.043378,0.004353,0.005664,0.003736,-57.550690,-52.519871,63.462189,,,,,,,1
1514403686.388633,-0.133430,1.527020,1.624910,0.000351,0.001393,-0.000025,-0.005822,-0.999042,-0.043374,0.003686,0.005008,0.004235,-57.550690,-52.519871,63.462189,,,,,,,1
1514403686.398612,-0.133268,1.527018,1.624750,0.000346,-0.000736,-0.001105,-0.005815,-0.999042,-0.043375,0.003557,0.005344,0.003610,-57.428970,-52.522194,63.337708,,,,,,,1
1514403686.408623,-0.133160,1.527034,1.624645,0.002490,0.001383,-0.000022,-0.005808,-0.999043,-0.043360,0.004221,0.005665,0.003229,-57.428970,-52.522194,63.337708,,,,,,,1
1514403686.418602,-0.133007,1.527033,1.624489,0.000344,0.000321,-0.000032,-0.005802,-0.999043,-0.043361,0.002994,0.004810,0.004802,-57.495789,-52.384911,63.382568,,,,,,,1
1514403686.428581,-0.132852,1.527034,1.624332,-0.000723,0.000339,-0.001104,-0.005795,-0.999043,-0.043361,0.003140,0.004734,0.003383,-57.495789,-52.384911,63.382568,,,,,,,1
1514403686.438591,-0.132709,1.527039,1.624192,-0.000724,0.000321,-0.000035,-0.005788,-0.999043,-0.043357,0.003804,0.004994,0.003623,-57.408813,-52.549797,63.430786,,,,,,,1
1514403686.448570,-0.132719,1.527048,1.624193,0.000337,-0.001825,-0.000042,-0.005787,-0.999043,-0.043347,0.003895,0.004826,0.003934,-57.408813,-52.549797,63.430786,,,,,,,1
1514403686.458549,-0.132851,1.527064,1.624326,0.000339,-0.000771,0.001032,-0.005791,-0.999044,-0.043332,0.003060,0.003988,0.003964,-57.685013,-52.388138,63.551361,,,,,,,1
1514403686.468559,-0.133068,1.527063,1.624535,0.000339,-0.000771,0.001032,-0.005800,-0.999044,-0.043333,0.003847,0.005132,0.003736,-57.685013,-52.388138,63.551361,,,,,,,1
1514403686.478538,-0.132928,1.527069,1.624399,0.000342,0.000332,-0.001104,-0.005794,-0.999044,-0.043328,0.003902,0.004903,0.002130,-57.531143,-52.550583,63.520966,,,,,,,1
1514403686.488518,-0.132932,1.527081,1.624410,0.001409,0.000313,-0.000032,-0.005792,-0.999045,-0.043314,0.004800,0.004889,0.004465,-57.549393,-52.525406,63.488342,,,,,,,1
1514403686.498527,-0.132953,1.527096,1.624428,0.002490,0.001388,-0.001095,-0.005791,-0.999045,-0.043298,0.004631,0.005072,0.004403,-57.549393,-52.525406,63.488342,,,,,,,1
1514403686.508507,-0.132920,1.527095,1.624398,0.000343,0.000311,-0.000034,-0.005789,-0.999045,-0.043299,0.004248,0.005820,0.002360,-57.520035,-52.600128,63.538666,,,,,,,1
1514403686.518486,-0.133036,1.527099,1.624497,0.000330,-0.001829,-0.000045,-0.005794,-0.999045,-0.043295,0.004024,0.006034,0.003347,-57.520035,-52.600128,63.538666,,,,,,,1
1514403686.528496,-0.133411,1.527107,1.624858,0.000324,-0.001858,0.002094,-0.005809,-0.999046,-0.043285,0.003841,0.004753,0.003017,-57.640350,-52.522408,63.535797,,,,,,,1
