timestamp(unix),attitude_roll(radians),attitude_pitch(radians),attitude_yaw(radians),rotation_rate_x(radians/s),rotation_rate_y(radians/s),rotation_rate_z(radians/s),gravity_x(G),gravity_y(G),gravity_z(G),user_acc_x(G),user_acc_y(G),user_acc_z(G),magnetic_field_x(microteslas),magnetic_field_y(microteslas),magnetic_field_z(microteslas),latitude(degree),longitude(degree),altitude(meter),speed(m/s),course(degree),timestamp(unix),User Mark
1514403721.166620,-0.068753,1.493004,1.648234,-0.000678,0.002587,-0.000014,-0.005333,-0.996976,-0.077439,0.001213,0.004636,0.000870,-55.767761,-54.161964,63.812805,,,,,,,1
1514403721.176630,-0.068650,1.493002,1.648157,0.000375,0.000449,-0.000021,-0.005325,-0.996976,-0.077442,0.000594,0.004864,0.006946,-55.767761,-54.161964,63.812805,,,,,,,1
1514403721.186609,-0.068692,1.493014,1.648170,0.000366,-0.002750,-0.001105,-0.005327,-0.996976,-0.077428,0.001406,0.004804,0.003682,-55.780594,-54.067566,63.734894,,,,,,,1
1514403721.196588,-0.068749,1.493014,1.648232,-0.000694,0.000435,0.001049,-0.005331,-0.996976,-0.077428,0.000372,0.005628,0.005284,-55.780594,-54.067566,63.734894,,,,,,,1
,,,,,,,,,,,,,,,,33.823670,-116.547348,139.969299,-1.000000,-1.000000,1514403720.783008,1
1514403721.206598,-0.068819,1.493028,1.648296,0.001441,-0.000644,0.001048,-0.005336,-0.996978,-0.077413,-0.000249,0.004653,0.005148,-55.842667,-54.090885,63.835693,,,,,,,1
1514403721.216577,-0.068880,1.493040,1.648374,0.000382,0.003649,0.001066,-0.005340,-0.996979,-0.077403,-0.000184,0.005295,0.004435,-55.842667,-54.090885,63.835693,,,,,,,1
1514403721.226556,-0.068950,1.493044,1.648433,0.001428,-0.002782,0.001039,-0.005345,-0.996979,-0.077399,0.000340,0.005920,0.004676,-55.771103,-54.061890,63.805634,,,,,,,1
1514403721.236566,-0.068950,1.493033,1.648421,-0.001763,0.000455,-0.000020,-0.005346,-0.996978,-0.077409,0.001043,0.005675,0.003526,-55.771103,-54.061890,63.805634,,,,,,,1
1514403721.246545,-0.068935,1.493038,1.648421,0.001455,0.002585,-0.000004,-0.005344,-0.996978,-0.077405,0.000614,0.005752,0.005750,-55.666473,-53.989994,63.665771,,,,,,,1
1514403721.256525,-0.068813,1.493043,1.648282,0.001440,-0.001684,-0.001091,-0.005335,-0.996979,-0.077400,0.001123,0.004486,0.004341,-55.666473,-53.989994,63.665771,,,,,,,1
1514403721.266534,-0.068871,1.493042,1.648344,-0.000702,-0.000633,0.001049,-0.005339,-0.996979,-0.077401,0.000639,0.003631,0.005135,-55.695526,-53.931091,63.877014,,,,,,,1
1514403721.276514,-0.069011,1.493045,1.648483,0.000368,0.000420,0.002126,-0.005350,-0.996979,-0.077396,0.000574,0.005356,0.003894,-55.695526,-53.931091,63.877014,,,,,,,1
1514403721.286493,-0.069069,1.493044,1.648551,0.001441,0.000430,0.001058,-0.005354,-0.996979,-0.077396,0.001692,0.005280,0.004658,-55.728592,-54.102493,63.808472,,,,,,,1
1514403721.296472,-0.069199,1.493037,1.648680,-0.001771,-0.000629,0.001048,-0.005365,-0.996978,-0.077402,0.000909,0.004714,0.004740,-55.728592,-54.102493,63.808472,,,,,,,1
1514403721.306482,-0.069133,1.493043,1.648614,0.001441,-0.000627,-0.000016,-0.005359,-0.996979,-0.077397,0.000751,0.005127,0.004567,-55.761307,-54.040009,63.949310,,,,,,,1
1514403721.316461,-0.068990,1.493043,1.648470,0.000375,-0.000592,-0.002157,-0.005348,-0.996979,-0.077398,0.000862,0.004913,0.005026,-55.761307,-54.040009,63.949310,,,,,,,1
1514403721.326440,-0.068998,1.493054,1.648478,0.002513,0.000442,-0.000009,-0.005348,-0.996980,-0.077388,0.001259,0.005647,0.004070,-55.718201,-54.126751,63.921478,,,,,,,1
1514403721.336450,-0.068877,1.493064,1.648344,0.000365,-0.001675,-0.001091,-0.005338,-0.996980,-0.077378,0.001264,0.005464,0.004670,-55.718201,-54.126751,63.921478,,,,,,,1
1514403721.346429,-0.068740,1.493075,1.648211,0.000377,0.001539,-0.001077,-0.005327,-0.996981,-0.077368,0.001253,0.005129,0.004858,-55.921890,-54.027042,63.843689,,,,,,,1
1514403721.356409,-0.068732,1.493074,1.648208,0.000381,0.001535,-0.001075,-0.005326,-0.996981,-0.077369,0.000428,0.004961,0.004615,-55.921890,-54.027042,63.843689,,,,,,,1
1514403721.366418,-0.068667,1.493087,1.648144,0.000374,0.000450,-0.000010,-0.005320,-0.996982,-0.077359,0.001292,0.005863,0.004818,-55.823334,-53.980148,63.822296,,,,,,,1
1514403721.376398,-0.068674,1.493097,1.648150,0.001445,0.000444,-0.000006,-0.005320,-0.996983,-0.077349,0.001185,0.005970,0.005007,-55.823334,-53.980148,63.822296,,,,,,,1
1514403721.386377,-0.068587,1.493086,1.648068,-0.002831,0.000475,-0.001083,-0.005314,-0.996982,-0.077360,0.001637,0.004825,0.004743,-55.669693,-54.014400,63.912048,,,,,,,1
1514403721.396387,-0.068568,1.493086,1.648065,-0.000689,0.001539,-0.001073,-0.005313,-0.996982,-0.077361,0.000995,0.005298,0.005614,-55.669693,-54.014400,63.912048,,,,,,,1
1514403721.406366,-0.068579,1.493102,1.648076,0.001443,-0.000612,-0.001079,-0.005313,-0.996983,-0.077345,0.001361,0.005269,0.005461,-55.887390,-54.040947,63.842682,,,,,,,1
1514403721.416345,-0.068702,1.493102,1.648210,0.000384,0.001498,0.001069,-0.005322,-0.996983,-0.077346,0.000531,0.005574,0.005187,-55.887390,-54.040947,63.842682,,,,,,,1
1514403721.426355,-0.068787,1.493113,1.648284,0.001445,-0.001705,-0.000013,-0.005328,-0.996984,-0.077336,0.001437,0.005987,0.004689,-55.773773,-54.058315,64.043488,,,,,,,1
1514403721.436334,-0.068873,1.493124,1.648361,0.000366,-0.000635,0.001058,-0.005334,-0.996985,-0.077325,0.000467,0.005820,0.004877,-55.773773,-54.058315,64.043488,,,,,,,1
1514403721.446313,-0.068859,1.493124,1.648357,0.000375,0.000465,-0.001076,-0.005333,-0.996985,-0.077326,-0.000343,0.005820,0.004511,-55.749756,-54.166702,63.920990,,,,,,,1
1514403721.456323,-0.068929,1.493135,1.648433,0.000374,0.000450,-0.000007,-0.005338,-0.996986,-0.077316,0.000745,0.004722,0.004654,-55.749756,-54.166702,63.920990,,,,,,,1
1514403721.466302,-0.068845,1.493140,1.648364,0.001451,0.001531,-0.001069,-0.005331,-0.996986,-0.077311,0.001516,0.004616,0.004862,-55.747543,-54.068359,64.003998,,,,,,,1
1514403721.476282,-0.068959,1.493138,1.648498,-0.000694,0.001527,-0.000004,-0.005340,-0.996986,-0.077312,0.001052,0.004768,0.005153,-55.747543,-54.068359,64.003998,,,,,,,1
1514403721.486291,-0.068891,1.493145,1.648430,0.000368,-0.000620,-0.000012,-0.005334,-0.996987,-0.077307,0.001703,0.005532,0.004507,-55.801239,-54.060478,63.957153,,,,,,,1
1514403721.496271,-0.068873,1.493144,1.648426,-0.000698,0.000455,-0.000010,-0.005333,-0.996987,-0.077307,0.001350,0.006218,0.004279,-55.801239,-54.060478,63.957153,,,,,,,1
1514403721.506250,-0.068726,1.493144,1.648283,0.000375,0.000466,-0.001077,-0.005321,-0.996987,-0.077308,-0.000187,0.005119,0.005988,-55.560226,-54.104870,63.990997,,,,,,,1
1514403721.516260,-0.068740,1.493154,1.648292,0.000370,-0.000622,-0.000012,-0.005322,-0.996987,-0.077298,0.000927,0.004617,0.004696,-55.560226,-54.104870,63.990997,,,,,,,1
1514403721.526239,-0.068745,1.493158,1.648295,0.000374,0.000449,-0.000007,-0.005322,-0.996988,-0.077293,0.000836,0.005044,0.004814,-55.687698,-54.008911,63.695984,,,,,,,1
1514403721.536218,-0.068899,1.493173,1.648444,0.000364,-0.001691,-0.000017,-0.005333,-0.996989,-0.077278,0.000770,0.004923,0.004203,-55.687698,-54.008911,63.695984,,,,,,,1
1514403721.546228,-0.068889,1.493163,1.648428,-0.000706,-0.001686,-0.000018,-0.005333,-0.996988,-0.077289,0.001167,0.004740,0.004138,-55.780869,-54.002106,64.009399,,,,,,,1
1514403721.556207,-0.068938,1.493151,1.648482,-0.001760,0.001527,-0.000005,-0.005337,-0.996987,-0.077300,-0.000018,0.005166,0.004775,-55.780869,-54.002106,64.009399,,,,,,,1
1514403721.566186,-0.068863,1.493152,1.648407,-0.000702,-0.001690,-0.000018,-0.005332,-0.996987,-0.077301,0.000617,0.005013,0.005371,-55.927078,-54.032154,63.820129,,,,,,,1
1514403721.576196,-0.068869,1.493156,1.648405,0.000372,-0.000640,0.001059,-0.005332,-0.996987,-0.077296,0.001944,0.004769,0.004893,-55.927078,-54.032154,63.820129,,,,,,,1
1514403721.586175,-0.068941,1.493160,1.648476,-0.000687,0.001520,-0.000003,-0.005337,-0.996988,-0.077291,0.000927,0.005456,0.005788,-55.769836,-54.026913,63.980835,,,,,,,1
1514403721.596155,-0.068884,1.493165,1.648408,0.000368,-0.000620,-0.000011,-0.005332,-0.996988,-0.077286,0.001228,0.005533,0.004792,-55.769836,-54.026913,63.980835,,,,,,,1
1514403721.606164,-0.068737,1.493171,1.648270,0.000378,0.000480,-0.002145,-0.005320,-0.996989,-0.077282,0.001445,0.005122,0.004604,-55.680969,-54.148422,63.801208,,,,,,,1
1514403721.616144,-0.068806,1.493181,1.648345,0.000382,0.001517,-0.000001,-0.005325,-0.996989,-0.077272,0.001388,0.005199,0.005403,-55.680969,-54.148422,63.801208,,,,,,,1
1514403721.626123,-0.068944,1.493175,1.648472,-0.000699,-0.000635,0.001058,-0.005336,-0.996989,-0.077278,0.000789,0.005671,0.004341,-55.811478,-53.959572,63.872742,,,,,,,1
1514403721.636133,-0.069077,1.493169,1.648605,-0.000698,-0.001711,0.001053,-0.005347,-0.996989,-0.077283,0.001898,0.005854,0.004728,-55.811478,-53.959572,63.872742,,,,,,,1
1514403721.646112,-0.069005,1.493180,1.648543,0.001456,0.000452,-0.001072,-0.005341,-0.996989,-0.077273,0.001206,0.005275,0.004122,-55.677017,-54.043060,63.793304,,,,,,,1
1514403721.656091,-0.068940,1.493186,1.648473,0.000377,-0.000628,-0.000010,-0.005335,-0.996990,-0.077268,0.001444,0.004924,0.004606,-55.677017,-54.043060,63.793304,,,,,,,1
1514403721.666101,-0.068814,1.493198,1.648341,0.001449,-0.000618,-0.001077,-0.005325,-0.996991,-0.077258,0.000839,0.005475,0.005190,-55.888077,-54.142639,63.786407,,,,,,,1
1514403721.676080,-0.068807,1.493197,1.648338,0.000369,-0.000638,0.001059,-0.005324,-0.996991,-0.077258,0.001143,0.005108,0.004962,-55.888077,-54.142639,63.786407,,,,,,,1
1514403721.686060,-0.068861,1.493191,1.648396,-0.001762,0.001513,0.001065,-0.005329,-0.996990,-0.077264,0.001499,0.005840,0.004876,-55.706131,-54.012085,63.748322,,,,,,,1
1514403721.696069,-0.068915,1.493186,1.648456,-0.000689,0.000453,-0.000008,-0.005333,-0.996990,-0.077270,0.001717,0.005642,0.004912,-55.706131,-54.012085,63.748322,,,,,,,1
1514403721.706049,-0.068990,1.493196,1.648530,0.001444,-0.000641,0.001061,-0.005339,-0.996991,-0.077260,0.000868,0.004696,0.004719,-55.714310,-53.894428,63.822968,,,,,,,1
1514403721.716028,-0.069116,1.493195,1.648661,0.000371,0.001505,0.002138,-0.005348,-0.996991,-0.077260,0.001091,0.004727,0.004934,-55.714310,-53.894428,63.822968,,,,,,,1
1514403721.726038,-0.069100,1.493195,1.648656,0.000377,0.001534,-0.000001,-0.005347,-0.996991,-0.077261,0.001578,0.004940,0.004385,-55.730484,-53.839043,63.775757,,,,,,,1
1514403721.736017,-0.069246,1.493202,1.648795,0.000344,-0.000622,0.001057,-0.005358,-0.996991,-0.077251,0.001604,0.004422,0.004207,-55.730484,-53.839043,63.775757,,,,,,,1
1514403721.745996,-0.069379,1.493200,1.648926,0.000345,0.000435,0.002131,-0.005368,-0.996991,-0.077252,0.001065,0.005032,0.004498,-55.807663,-53.865585,63.886505,,,,,,,1
1514403721.756006,-0.069442,1.493211,1.649001,0.000337,0.001531,-0.000005,-0.005372,-0.996992,-0.077242,0.001955,0.005155,0.003832,-55.807663,-53.865585,63.886505,,,,,,,1
1514403721.765985,-0.069239,1.493216,1.648791,0.000332,-0.000597,-0.001084,-0.005356,-0.996992,-0.077238,0.000886,0.005308,0.004163,-55.691650,-54.043514,63.878540,,,,,,,1
1514403721.775964,-0.069301,1.493226,1.648863,0.001402,0.002605,-0.001070,-0.005361,-0.996993,-0.077228,0.001088,0.005568,0.003589,-55.691650,-54.043514,63.878540,,,,,,,1
1514403721.785974,-0.069300,1.493230,1.648862,0.001390,-0.000608,-0.001084,-0.005360,-0.996993,-0.077224,0.000828,0.005401,0.004226,-55.873703,-54.004986,63.901764,,,,,,,1
1514403721.795953,-0.069349,1.493240,1.648937,0.000311,0.003651,0.001070,-0.005363,-0.996994,-0.077214,0.000221,0.005402,0.005620,-55.873703,-54.004986,63.901764,,,,,,,1
1514403721.805933,-0.069409,1.493244,1.649003,0.000302,0.000452,-0.000014,-0.005368,-0.996994,-0.077210,0.000653,0.005646,0.005830,-55.850311,-53.971085,63.850189,,,,,,,1
1514403721.815912,-0.069386,1.493236,1.648988,0.000292,0.000445,-0.000015,-0.005366,-0.996994,-0.077217,0.000926,0.005432,0.004234,-55.850311,-53.971085,63.850189,,,,,,,1
1514403721.825922,-0.069399,1.493246,1.648991,0.001354,-0.001701,-0.000023,-0.005367,-0.996994,-0.077208,0.001262,0.005616,0.003859,-55.710205,-53.998558,63.929749,,,,,,,1
1514403721.835901,-0.069312,1.493251,1.648919,0.000289,0.001522,-0.001081,-0.005360,-0.996995,-0.077204,0.000965,0.005555,0.004816,-55.710205,-53.998558,63.929749,,,,,,,1
1514403721.845880,-0.069144,1.493255,1.648781,-0.000777,0.002598,-0.001078,-0.005346,-0.996995,-0.077201,0.001364,0.004945,0.004325,-55.860367,-54.001083,63.798584,,,,,,,1
1514403721.855890,-0.069078,1.493259,1.648709,0.001338,-0.000630,-0.001089,-0.005341,-0.996996,-0.077197,0.001099,0.004793,0.004641,-55.860367,-54.001083,63.798584,,,,,,,1
1514403721.865869,-0.068935,1.493258,1.648565,0.000272,0.000446,-0.001086,-0.005330,-0.996995,-0.077199,0.001241,0.005723,0.004902,-55.726334,-54.024124,63.910126,,,,,,,1
1514403721.875848,-0.069001,1.493256,1.648629,0.000262,0.000422,-0.000016,-0.005335,-0.996995,-0.077200,0.000956,0.005739,0.004690,-55.726334,-54.024124,63.910126,,,,,,,1
1514403721.885858,-0.069076,1.493253,1.648692,0.000258,-0.000649,-0.000020,-0.005341,-0.996995,-0.077202,0.000809,0.005265,0.004295,-55.730667,-54.102394,63.918549,,,,,,,1
1514403721.895837,-0.069047,1.493236,1.648673,-0.001881,0.001479,0.001056,-0.005340,-0.996994,-0.077219,0.000091,0.005447,0.004359,-55.730667,-54.102394,63.918549,,,,,,,1
1514403721.905817,-0.068968,1.493224,1.648588,-0.000809,0.000433,-0.001086,-0.005335,-0.996993,-0.077232,0.000941,0.005873,0.004921,-55.701111,-54.062531,63.773865,,,,,,,1
1514403721.915826,-0.068898,1.493224,1.648512,-0.000820,-0.001715,-0.001095,-0.005330,-0.996993,-0.077234,0.000691,0.004637,0.004587,-55.701111,-54.062531,63.773865,,,,,,,1
1514403721.925806,-0.068817,1.493223,1.648436,-0.000808,0.001498,-0.001081,-0.005324,-0.996993,-0.077236,0.001188,0.005339,0.004299,-55.698502,-53.898521,63.855530,,,,,,,1
1514403721.935785,-0.068610,1.493234,1.648233,0.001333,0.001496,-0.002145,-0.005307,-0.996994,-0.077227,0.001385,0.004959,0.005190,-55.698502,-53.898521,63.855530,,,,,,,1
1514403721.945795,-0.068526,1.493224,1.648149,-0.000816,0.000404,-0.000015,-0.005301,-0.996993,-0.077239,0.000922,0.004744,0.005141,-55.758728,-53.977764,63.999329,,,,,,,1
1514403721.955774,-0.068531,1.493228,1.648149,0.000247,-0.001750,-0.000022,-0.005301,-0.996993,-0.077235,0.000419,0.005263,0.005397,-55.758728,-53.977764,63.999329,,,,,,,1
1514403721.965753,-0.068390,1.493227,1.648006,0.000258,0.000407,-0.001082,-0.005290,-0.996993,-0.077237,0.000820,0.005004,0.004163,-55.718323,-53.945393,63.888672,,,,,,,1
1514403721.975763,-0.068389,1.493218,1.647997,-0.001899,-0.001740,-0.000026,-0.005291,-0.996992,-0.077245,0.001339,0.005141,0.004887,-55.718323,-53.945393,63.888672,,,,,,,1
1514403721.985742,-0.068309,1.493212,1.647917,0.000247,-0.000663,-0.001087,-0.005285,-0.996992,-0.077252,0.001104,0.004286,0.004910,-55.669296,-54.034576,63.840454,,,,,,,1
1514403721.995721,-0.068321,1.493218,1.647918,0.000243,-0.001753,-0.000022,-0.005286,-0.996992,-0.077248,-0.000268,0.004469,0.003624,-55.669296,-54.034576,63.840454,,,,,,,1
1514403722.005731,-0.068399,1.493221,1.647984,-0.000826,-0.001749,-0.000024,-0.005292,-0.996993,-0.077245,0.000546,0.004622,0.004002,-55.679489,-54.080769,64.104492,,,,,,,1
1514403722.015710,-0.068299,1.493200,1.647890,-0.002950,0.000412,-0.001086,-0.005286,-0.996991,-0.077268,0.001791,0.004895,0.004468,-55.679489,-54.080769,64.104492,,,,,,,1
1514403722.025690,-0.068158,1.493199,1.647747,0.001329,0.000395,-0.001079,-0.005275,-0.996991,-0.077269,0.001277,0.004529,0.005416,-55.504852,-53.960999,63.965729,,,,,,,1
1514403722.035699,-0.068231,1.493198,1.647814,0.000253,-0.000703,0.001056,-0.005280,-0.996991,-0.077271,0.000825,0.005536,0.004318,-55.504852,-53.960999,63.965729,,,,,,,1
1514403722.045679,-0.068310,1.493207,1.647887,0.001326,0.000364,0.001062,-0.005286,-0.996991,-0.077262,0.000708,0.004682,0.004554,-55.505569,-54.050961,64.030426,,,,,,,1
1514403722.055658,-0.068383,1.493222,1.647965,0.001327,0.000364,0.001064,-0.005291,-0.996993,-0.077248,0.001323,0.005019,0.004539,-55.505569,-54.050961,64.030426,,,,,,,1
1514403722.065668,-0.068385,1.493233,1.647972,0.001326,-0.000693,-0.000011,-0.005290,-0.996993,-0.077238,0.000911,0.005630,0.005202,-55.589157,-53.951626,64.228180,,,,,,,1
1514403722.075647,-0.068483,1.493248,1.648055,0.002395,-0.001771,-0.000012,-0.005297,-0.996995,-0.077224,0.001192,0.005372,0.004715,-55.589157,-53.951626,64.228180,,,,,,,1
1514403722.085626,-0.068343,1.493247,1.647913,0.000269,0.000409,-0.002145,-0.005286,-0.996995,-0.077226,0.001487,0.005936,0.004823,-55.619843,-53.989040,64.029236,,,,,,,1
1514403722.095628,-0.068335,1.493252,1.647910,0.001331,0.000380,-0.000004,-0.005285,-0.996995,-0.077222,0.000998,0.004991,0.004163,-55.619843,-53.989040,64.029236,,,,,,,1
1514403722.105607,-0.068389,1.493251,1.647974,0.000262,0.001441,0.001069,-0.005290,-0.996995,-0.077224,0.000437,0.004640,0.003875,-55.499863,-53.945797,63.998077,,,,,,,1
1514403722.115586,-0.068321,1.493260,1.647909,0.001340,0.000389,-0.001071,-0.005284,-0.996996,-0.077215,0.000965,0.004991,0.005209,-55.499863,-53.945797,63.998077,,,,,,,1
1514403722.125596,-0.068402,1.493269,1.647984,0.001331,-0.000711,0.001063,-0.005289,-0.996996,-0.077206,0.001658,0.004748,0.005459,-55.666977,-53.996250,63.834412,,,,,,,1
1514403722.135575,-0.068396,1.493284,1.647993,0.000268,0.001452,0.000002,-0.005288,-0.996997,-0.077192,0.000664,0.004688,0.005735,-55.666977,-53.996250,63.834412,,,,,,,1
1514403722.145555,-0.068403,1.493297,1.648002,0.001330,-0.000694,-0.000006,-0.005287,-0.996998,-0.077177,0.000969,0.004887,0.004729,-55.534897,-53.907787,63.821716,,,,,,,1
1514403722.155564,-0.068271,1.493300,1.647862,0.000258,-0.000656,-0.002146,-0.005277,-0.996999,-0.077174,0.000623,0.005406,0.004679,-55.534897,-53.907787,63.821716,,,,,,,1
1514403722.165544,-0.068136,1.493315,1.647730,0.001326,0.000382,-0.000000,-0.005266,-0.997000,-0.077160,0.000169,0.005316,0.006145,-55.562088,-53.870468,63.951416,,,,,,,1
1514403722.175523,-0.068112,1.493306,1.647720,0.000259,0.001455,0.000005,-0.005264,-0.996999,-0.077167,0.001129,0.004934,0.005008,-55.562088,-53.870468,63.951416,,,,,,,1
1514403722.185533,-0.068106,1.493300,1.647713,-0.000819,-0.000683,-0.000006,-0.005264,-0.996999,-0.077174,0.001160,0.004109,0.004649,-55.687057,-53.936680,63.900024,,,,,,,1
1514403722.195512,-0.068045,1.493298,1.647639,0.000254,0.000381,0.000003,-0.005260,-0.996998,-0.077176,0.001094,0.004613,0.004636,-55.687057,-53.936680,63.900024,,,,,,,1
1514403722.205491,-0.068059,1.493313,1.647647,0.001316,-0.001765,-0.000005,-0.005260,-0.997000,-0.077161,0.000957,0.005178,0.004682,-55.559219,-54.025772,63.902771,,,,,,,1
1514403722.215501,-0.068137,1.493317,1.647718,0.000254,-0.000696,0.000001,-0.005265,-0.997000,-0.077158,0.000550,0.005591,0.004968,-55.559219,-54.025772,63.902771,,,,,,,1
1514403722.225480,-0.068060,1.493330,1.647660,0.001339,0.002528,-0.001052,-0.005258,-0.997001,-0.077143,0.000803,0.005241,0.005030,-55.526031,-53.703571,63.913177,,,,,,,1
1514403722.235459,-0.068071,1.493344,1.647670,0.001316,0.000378,0.000009,-0.005258,-0.997002,-0.077129,0.000147,0.004601,0.005291,-55.526031,-53.703571,63.913177,,,,,,,1
1514403722.245469,-0.068051,1.493338,1.647664,-0.000821,0.000401,-0.001064,-0.005257,-0.997002,-0.077136,0.000008,0.004982,0.004504,-55.669159,-53.838814,63.843964,,,,,,,1
1514403722.255448,-0.068039,1.493326,1.647651,-0.001891,0.000385,0.000006,-0.005257,-0.997001,-0.077148,0.000619,0.006110,0.004410,-55.669159,-53.838814,63.843964,,,,,,,1
1514403722.265428,-0.067883,1.493321,1.647505,-0.001878,0.001499,-0.003197,-0.005246,-0.997000,-0.077155,0.000821,0.005499,0.004341,-55.504349,-53.879768,63.876221,,,,,,,1
1514403722.275437,-0.067807,1.493310,1.647424,-0.000826,-0.000692,0.000005,-0.005241,-0.996999,-0.077168,0.000953,0.004843,0.004475,-55.504349,-53.879768,63.876221,,,,,,,1
1514403722.285417,-0.067868,1.493302,1.647482,-0.001896,-0.000688,0.000003,-0.005246,-0.996999,-0.077175,0.000271,0.005910,0.004788,-55.490662,-53.891075,63.955536,,,,,,,1
1514403722.295396,-0.067945,1.493305,1.647553,0.000237,-0.001785,0.001074,-0.005252,-0.996999,-0.077172,0.000781,0.004918,0.005211,-55.490662,-53.891075,63.955536,,,,,,,1
1514403722.305406,-0.068027,1.493313,1.647628,0.001310,-0.000718,0.001081,-0.005257,-0.997000,-0.077163,0.001382,0.005422,0.004485,-55.436142,-53.883854,63.908295,,,,,,,1
1514403722.315385,-0.068103,1.493321,1.647705,0.001312,0.000353,0.001088,-0.005263,-0.997000,-0.077154,0.001326,0.005484,0.005056,-55.436142,-53.883854,63.908295,,,,,,,1
1514403722.325364,-0.068041,1.493324,1.647641,0.000249,0.001442,0.000021,-0.005257,-0.997001,-0.077150,0.001321,0.004782,0.004747,-55.677124,-54.067986,63.795959,,,,,,,1
1514403722.335343,-0.068030,1.493333,1.647650,0.000248,0.002514,0.000028,-0.005256,-0.997001,-0.077142,0.000999,0.005180,0.004800,-55.677124,-54.067986,63.795959,,,,,,,1
1514403722.345353,-0.067885,1.493331,1.647508,0.001313,0.000382,-0.001049,-0.005245,-0.997001,-0.077144,0.000683,0.005348,0.005397,-55.573807,-53.898617,63.895538,,,,,,,1
1514403722.355333,-0.067958,1.493333,1.647578,0.000241,0.000351,0.001091,-0.005250,-0.997001,-0.077140,0.000673,0.004982,0.004783,-55.573807,-53.898617,63.895538,,,,,,,1
1514403722.365312,-0.067890,1.493331,1.647509,0.000243,-0.000691,-0.001052,-0.005245,-0.997001,-0.077142,0.000164,0.004295,0.004648,-55.496323,-54.099270,63.901703,,,,,,,1
1514403722.375322,-0.068029,1.493334,1.647651,-0.000829,0.000353,0.001092,-0.005256,-0.997001,-0.077139,0.001319,0.004036,0.004690,-55.496323,-54.099270,63.901703,,,,,,,1
1514403722.385301,-0.067899,1.493343,1.647519,0.000247,0.000377,-0.001045,-0.005245,-0.997002,-0.077130,0.001385,0.005440,0.004987,-55.452362,-54.046139,63.741730,,,,,,,1
1514403722.395280,-0.067826,1.493344,1.647452,-0.000823,0.000363,0.000026,-0.005240,-0.997002,-0.077132,0.000982,0.005288,0.005034,-55.452362,-54.046139,63.741730,,,,,,,1
1514403722.405290,-0.067884,1.493343,1.647521,0.000244,0.000344,0.001098,-0.005244,-0.997002,-0.077134,0.001353,0.004692,0.005432,-55.555801,-54.019264,63.813354,,,,,,,1
1514403722.415269,-0.067885,1.493347,1.647525,0.000244,0.000360,0.000031,-0.005244,-0.997002,-0.077130,0.000499,0.005349,0.005154,-55.555801,-54.019264,63.813354,,,,,,,1
1514403722.425248,-0.067975,1.493344,1.647591,-0.000834,-0.001778,0.000019,-0.005251,-0.997002,-0.077132,0.000841,0.005700,0.005049,-55.441711,-53.840466,63.835754,,,,,,,1
1514403722.435258,-0.067962,1.493335,1.647587,-0.000823,0.001419,0.001106,-0.005251,-0.997001,-0.077139,0.001222,0.005150,0.005285,-55.441711,-53.840466,63.835754,,,,,,,1
1514403722.445237,-0.067971,1.493334,1.647589,-0.000828,-0.000709,0.000027,-0.005251,-0.997001,-0.077141,0.000308,0.005272,0.004890,-55.462433,-53.941463,63.951752,,,,,,,1
1514403722.455217,-0.068035,1.493327,1.647652,-0.000828,-0.000708,0.000029,-0.005257,-0.997001,-0.077148,0.000618,0.004584,0.005493,-55.462433,-53.941463,63.951752,,,,,,,1
1514403722.465226,-0.068105,1.493314,1.647710,-0.000836,-0.002850,0.000019,-0.005263,-0.997000,-0.077160,0.001479,0.005682,0.004758,-55.532471,-54.103218,64.067261,,,,,,,1
1514403722.475206,-0.068102,1.493312,1.647710,-0.000826,0.000366,0.000035,-0.005263,-0.997000,-0.077162,0.000777,0.005911,0.003996,-55.532471,-54.103218,64.067261,,,,,,,1
1514403722.485185,-0.068034,1.493323,1.647653,0.001317,0.000372,-0.001031,-0.005257,-0.997000,-0.077153,0.000954,0.004798,0.004323,-55.439880,-53.977592,63.809387,,,,,,,1
1514403722.495195,-0.068105,1.493326,1.647727,0.000244,0.000345,0.001109,-0.005262,-0.997001,-0.077150,0.000898,0.005103,0.005677,-55.439880,-53.977592,63.809387,,,,,,,1
1514403722.505174,-0.068117,1.493325,1.647727,-0.000831,-0.001779,0.000028,-0.005263,-0.997001,-0.077151,0.000320,0.005225,0.005115,-55.546432,-53.945053,63.965088,,,,,,,1
1514403722.515153,-0.068192,1.493328,1.647801,0.000248,0.000357,0.000041,-0.005269,-0.997001,-0.077148,0.001226,0.006217,0.003753,-55.546432,-53.945053,63.965088,,,,,,,1
1514403722.525163,-0.068176,1.493333,1.647811,0.001330,0.003566,0.000057,-0.005268,-0.997001,-0.077144,0.000888,0.006111,0.004711,-55.494034,-53.881123,63.978119,,,,,,,1
1514403722.535142,-0.068105,1.493327,1.647739,-0.001898,-0.000704,0.000034,-0.005263,-0.997001,-0.077151,0.000517,0.004890,0.004504,-55.494034,-53.881123,63.978119,,,,,,,1
1514403722.545121,-0.068184,1.493330,1.647811,0.000241,-0.000712,0.000037,-0.005268,-0.997001,-0.077148,0.000691,0.005134,0.005431,-55.490494,-53.936646,63.787170,,,,,,,1
1514403722.555131,-0.068053,1.493328,1.647671,0.000242,-0.000681,-0.002101,-0.005258,-0.997001,-0.077150,0.000498,0.005408,0.004975,-55.490494,-53.936646,63.787170,,,,,,,1
1514403722.565110,-0.068081,1.493342,1.647687,0.002376,-0.000718,0.000042,-0.005260,-0.997002,-0.077136,0.000621,0.005257,0.005541,-55.573639,-54.010719,63.947449,,,,,,,1
1514403722.575090,-0.068069,1.493334,1.647683,-0.000825,0.001419,0.001117,-0.005259,-0.997001,-0.077143,0.001124,0.004860,0.004663,-55.573639,-54.010719,63.947449,,,,,,,1
1514403722.585099,-0.068078,1.493332,1.647685,-0.001897,-0.000691,-0.001033,-0.005260,-0.997001,-0.077145,0.001079,0.005119,0.003994,-55.566116,-53.794220,63.762970,,,,,,,1
1514403722.595079,-0.068017,1.493337,1.647624,0.000243,0.000373,-0.001023,-0.005255,-0.997002,-0.077141,0.001105,0.005730,0.004494,-55.566116,-53.794220,63.762970,,,,,,,1
1514403722.605058,-0.067947,1.493341,1.647563,0.001310,0.000355,0.000048,-0.005249,-0.997002,-0.077138,0.000901,0.004997,0.004262,-55.748428,-54.076569,63.960358,,,,,,,1
1514403722.615068,-0.067886,1.493345,1.647500,0.000236,-0.000698,-0.001026,-0.005244,-0.997002,-0.077135,0.000774,0.005303,0.003786,-55.748428,-54.076569,63.960358,,,,,,,1
1514403722.625047,-0.067977,1.493362,1.647588,0.001303,-0.000716,0.000045,-0.005250,-0.997003,-0.077115,0.000550,0.004633,0.003873,-55.610153,-53.876308,63.909119,,,,,,,1
1514403722.635026,-0.068134,1.493371,1.647739,0.001297,-0.000731,0.001117,-0.005262,-0.997004,-0.077106,0.001584,0.005519,0.005085,-55.610153,-53.876308,63.909119,,,,,,,1
1514403722.645036,-0.068073,1.493380,1.647680,0.000233,-0.000698,-0.001024,-0.005256,-0.997005,-0.077098,0.002327,0.005947,0.004756,-55.484741,-53.989777,63.742706,,,,,,,1
1514403722.655015,-0.068071,1.493372,1.647677,-0.000845,-0.000706,0.000045,-0.005257,-0.997004,-0.077105,0.001320,0.005046,0.004946,-55.484741,-53.989777,63.742706,,,,,,,1
1514403722.664994,-0.067951,1.493378,1.647546,0.000224,-0.001767,-0.001028,-0.005247,-0.997005,-0.077102,0.001265,0.005428,0.004622,-55.489410,-54.037601,63.828400,,,,,,,1
1514403722.675004,-0.068023,1.493380,1.647622,-0.000835,0.000342,0.001122,-0.005253,-0.997005,-0.077098,0.001331,0.006130,0.003872,-55.489410,-54.037601,63.828400,,,,,,,1
1514403722.684983,-0.067968,1.493384,1.647559,0.000232,-0.001776,-0.001025,-0.005248,-0.997005,-0.077095,0.001098,0.005535,0.005394,-55.589310,-53.949806,63.844086,,,,,,,1
1514403722.694963,-0.068060,1.493396,1.647643,0.001292,-0.000732,0.001122,-0.005254,-0.997006,-0.077081,0.000707,0.004803,0.005228,-55.589310,-53.949806,63.844086,,,,,,,1
1514403722.704972,-0.068065,1.493399,1.647651,0.000225,-0.000713,0.000051,-0.005254,-0.997006,-0.077078,0.000601,0.004865,0.004431,-55.513611,-53.980568,63.737640,,,,,,,1
1514403722.714952,-0.068087,1.493413,1.647666,-0.000847,-0.000708,0.000051,-0.005255,-0.997007,-0.077064,0.000418,0.005003,0.004921,-55.513611,-53.980568,63.737640,,,,,,,1
1514403722.724931,-0.068022,1.493417,1.647600,0.000223,-0.000713,0.000052,-0.005250,-0.997008,-0.077061,0.000794,0.005141,0.005055,-55.383438,-53.960247,64.096710,,,,,,,1
1514403722.734941,-0.068021,1.493409,1.647597,-0.001922,-0.001791,0.001116,-0.005250,-0.997007,-0.077069,0.000673,0.005171,0.005032,-55.383438,-53.960247,64.096710,,,,,,,1
1514403722.744920,-0.067830,1.493405,1.647389,-0.000843,-0.001752,-0.002091,-0.005236,-0.997007,-0.077076,0.001009,0.005140,0.004993,-55.588699,-53.981880,63.827148,,,,,,,1
1514403722.754899,-0.067828,1.493408,1.647396,-0.000835,0.001432,0.000064,-0.005236,-0.997007,-0.077073,0.001101,0.005231,0.004853,-55.588699,-53.981880,63.827148,,,,,,,1
1514403722.764909,-0.067683,1.493410,1.647263,0.000238,0.001442,-0.001003,-0.005224,-0.997007,-0.077069,0.001211,0.005552,0.005567,-55.674377,-53.899651,63.790863,,,,,,,1
1514403722.774888,-0.067615,1.493402,1.647192,-0.000848,-0.000704,0.000056,-0.005219,-0.997007,-0.077076,0.000917,0.005887,0.004643,-55.674377,-53.899651,63.790863,,,,,,,1
1514403722.784867,-0.067555,1.493406,1.647131,0.000221,-0.000709,0.000058,-0.005215,-0.997007,-0.077073,0.001614,0.004499,0.004212,-55.711685,-53.893188,63.833771,,,,,,,1
1514403722.794877,-0.067543,1.493399,1.647132,-0.000836,0.001434,0.000068,-0.005214,-0.997006,-0.077081,0.000865,0.005399,0.005166,-55.711685,-53.893188,63.833771,,,,,,,1
1514403722.804856,-0.067543,1.493395,1.647135,-0.000840,0.000362,0.000063,-0.005214,-0.997006,-0.077083,0.000927,0.006314,0.004374,-55.614899,-54.037689,63.889496,,,,,,,1
1514403722.814836,-0.067559,1.493403,1.647149,0.001293,-0.000714,0.000063,-0.005215,-0.997007,-0.077074,0.000653,0.006040,0.004396,-55.614899,-54.037689,63.889496,,,,,,,1
1514403722.824845,-0.067506,1.493407,1.647088,0.001297,0.000357,0.000068,-0.005211,-0.997007,-0.077070,0.001396,0.005689,0.004271,-55.607468,-53.811996,63.850250,,,,,,,1
1514403722.834825,-0.067589,1.493416,1.647171,0.001294,0.000343,0.001139,-0.005216,-0.997008,-0.077062,0.001203,0.004652,0.003774,-55.607468,-53.811996,63.850250,,,,,,,1
1514403722.844804,-0.067590,1.493419,1.647180,-0.000839,0.001437,0.000070,-0.005216,-0.997008,-0.077058,0.001386,0.005476,0.004686,-55.583755,-53.931400,63.807465,,,,,,,1
1514403722.854814,-0.067595,1.493418,1.647184,0.000228,0.000360,0.000069,-0.005217,-0.997008,-0.077060,0.001967,0.005690,0.004566,-55.583755,-53.931400,63.807465,,,,,,,1
1514403722.864793,-0.067577,1.493410,1.647179,-0.001904,0.001454,-0.001000,-0.005216,-0.997007,-0.077068,0.000928,0.004667,0.004619,-55.596466,-53.941456,63.964966,,,,,,,1
1514403722.874772,-0.067445,1.493414,1.647051,0.001295,-0.000700,-0.001003,-0.005205,-0.997007,-0.077064,0.000765,0.004683,0.005119,-55.596466,-53.941456,63.964966,,,,,,,1
1514403722.884751,-0.067454,1.493417,1.647058,0.000225,-0.000696,-0.001005,-0.005206,-0.997008,-0.077061,0.000766,0.006270,0.004170,-55.652573,-53.780869,63.665100,,,,,,,1
1514403722.894761,-0.067535,1.493420,1.647138,0.000217,-0.000723,0.001136,-0.005212,-0.997008,-0.077058,0.000787,0.005232,0.005250,-55.652573,-53.780869,63.665100,,,,,,,1
1514403722.904740,-0.067534,1.493418,1.647141,-0.000842,0.001438,0.000074,-0.005212,-0.997008,-0.077060,0.000909,0.005049,0.004779,-55.656784,-53.990376,63.669464,,,,,,,1
1514403722.914720,-0.067536,1.493423,1.647153,-0.000848,0.000368,0.000070,-0.005212,-0.997008,-0.077057,0.001321,0.005767,0.003617,-55.656784,-53.990376,63.669464,,,,,,,1
1514403722.924729,-0.067606,1.493421,1.647229,0.000219,0.000349,0.001142,-0.005218,-0.997008,-0.077059,0.001830,0.005721,0.003741,-55.618942,-54.007103,63.616119,,,,,,,1
1514403722.934709,-0.067608,1.493427,1.647237,0.000219,0.000366,0.000074,-0.005218,-0.997008,-0.077056,0.000686,0.004974,0.005507,-55.618942,-54.007103,63.616119,,,,,,,1
1514403722.944688,-0.067634,1.493436,1.647250,-0.000859,-0.001772,0.000062,-0.005219,-0.997009,-0.077047,0.000214,0.004883,0.004888,-55.668945,-54.016369,63.757507,,,,,,,1
1514403722.954698,-0.067710,1.493438,1.647329,0.000214,0.000336,0.002214,-0.005225,-0.997009,-0.077044,0.000983,0.005295,0.004031,-55.668945,-54.016369,63.757507,,,,,,,1
1514403722.964677,-0.067713,1.493435,1.647335,0.000216,-0.000707,0.000070,-0.005225,-0.997009,-0.077046,0.001441,0.005462,0.004399,-55.650681,-53.879066,63.708588,,,,,,,1
1514403722.974656,-0.067792,1.493442,1.647417,0.000215,-0.000706,0.000072,-0.005231,-0.997010,-0.077038,0.000912,0.004929,0.004909,-55.650681,-53.879066,63.708588,,,,,,,1
1514403722.984666,-0.067878,1.493445,1.647496,0.000211,-0.001777,0.000067,-0.005237,-0.997010,-0.077035,0.000568,0.005585,0.004799,-55.624969,-54.044567,63.940826,,,,,,,1
1514403722.994645,-0.067889,1.493449,1.647507,0.000221,0.000363,0.000078,-0.005238,-0.997010,-0.077032,0.000050,0.005647,0.003896,-55.615662,-54.072899,63.798553,,,,,,,1
1514403723.004624,-0.067881,1.493448,1.647509,0.000232,0.002520,-0.000982,-0.005237,-0.997010,-0.077034,0.001117,0.005494,0.005333,-55.615662,-54.072899,63.798553,,,,,,,1
1514403723.014634,-0.067755,1.493446,1.647376,-0.000854,-0.000686,-0.000997,-0.005228,-0.997010,-0.077036,0.000879,0.005768,0.005472,-55.622192,-53.991344,63.948700,,,,,,,1
1514403723.024614,-0.067898,1.493432,1.647512,-0.000863,-0.001786,0.001137,-0.005240,-0.997009,-0.077049,0.000753,0.005447,0.004631,-55.622192,-53.991344,63.948700,,,,,,,1
1514403723.034593,-0.067817,1.493415,1.647435,-0.002995,-0.000676,-0.000999,-0.005234,-0.997008,-0.077067,0.000748,0.005369,0.005671,-55.531281,-53.968853,63.815186,,,,,,,1
1514403723.044603,-0.067900,1.493418,1.647512,0.001281,-0.000707,0.000078,-0.005241,-0.997008,-0.077064,-0.000451,0.004622,0.004981,-55.531281,-53.968853,63.815186,,,,,,,1
1514403723.054582,-0.067864,1.493423,1.647454,0.000200,-0.002842,0.000067,-0.005238,-0.997008,-0.077061,-0.000439,0.005202,0.004765,-55.661545,-53.822014,63.897858,,,,,,,1
1514403723.064561,-0.067814,1.493432,1.647402,0.000212,0.000372,0.000082,-0.005233,-0.997009,-0.077052,0.000366,0.005203,0.004954,-55.661545,-53.822014,63.897858,,,,,,,1
1514403723.074571,-0.067765,1.493430,1.647341,0.000211,-0.000685,-0.000991,-0.005230,-0.997009,-0.077055,0.000225,0.004119,0.004850,-55.549728,-53.970459,63.810944,,,,,,,1
1514403723.084550,-0.067785,1.493438,1.647354,0.001277,-0.001761,-0.000994,-0.005231,-0.997009,-0.077046,0.001279,0.005249,0.004643,-55.549728,-53.970459,63.810944,,,,,,,1
1514403723.094521,-0.067872,1.493442,1.647434,0.000202,-0.000710,0.001149,-0.005237,-0.997010,-0.077043,0.001453,0.005158,0.005159,-55.647354,-54.028965,63.949341,,,,,,,1
1514403723.104531,-0.067963,1.493454,1.647524,0.000209,0.000375,0.000085,-0.005243,-0.997011,-0.077029,0.000315,0.004777,0.004718,-55.647354,-54.028965,63.949341,,,,,,,1
1514403723.114510,-0.067844,1.493453,1.647392,0.000208,-0.000680,-0.000988,-0.005234,-0.997011,-0.077031,0.001145,0.005830,0.004781,-55.464264,-53.918102,63.861389,,,,,,,1
1514403723.124490,-0.067807,1.493452,1.647334,-0.001936,-0.001743,-0.000997,-0.005231,-0.997010,-0.077033,0.001157,0.005357,0.003471,-55.464264,-53.918102,63.861389,,,,,,,1
1514403723.134498,-0.067817,1.493439,1.647337,-0.001931,0.000371,0.001154,-0.005233,-0.997009,-0.077046,0.000518,0.005203,0.004384,-55.472763,-53.993240,63.777222,,,,,,,1
1514403723.144479,-0.067757,1.493438,1.647276,-0.000856,0.000395,-0.000984,-0.005229,-0.997009,-0.077048,0.000819,0.005341,0.004066,-55.472763,-53.993240,63.777222,,,,,,,1
1514403723.154458,-0.067767,1.493442,1.647291,0.001276,0.001436,0.001165,-0.005229,-0.997010,-0.077045,0.001247,0.005143,0.005283,-55.541656,-53.877399,63.978333,,,,,,,1
1514403723.164468,-0.067766,1.493435,1.647294,-0.000861,0.001459,0.000091,-0.005230,-0.997009,-0.077053,0.001216,0.005157,0.005291,-55.541656,-53.877399,63.978333,,,,,,,1
1514403723.174447,-0.067638,1.493433,1.647159,0.000205,-0.000672,-0.000984,-0.005220,-0.997009,-0.077055,0.000535,0.005371,0.004408,-55.577667,-54.005978,63.993469,,,,,,,1
1514403723.184425,-0.067717,1.493435,1.647241,-0.000868,-0.000682,0.000083,-0.005226,-0.997009,-0.077052,0.000297,0.004806,0.004313,-55.577667,-54.005978,63.993469,,,,,,,1
1514403723.194435,-0.067744,1.493444,1.647257,0.001261,-0.001754,0.000083,-0.005227,-0.997010,-0.077043,0.000848,0.005234,0.004915,-55.634277,-53.909306,64.010956,,,,,,,1
1514403723.204414,-0.067772,1.493456,1.647277,0.001262,-0.000697,0.001157,-0.005229,-0.997011,-0.077030,0.001750,0.004671,0.005085,-55.634277,-53.909306,64.010956,,,,,,,1
1514403723.214393,-0.067736,1.493465,1.647224,0.000200,-0.000664,-0.000983,-0.005225,-0.997011,-0.077022,0.001334,0.005327,0.003978,-55.585693,-53.977772,63.873810,,,,,,,1
1514403723.224403,-0.067749,1.493474,1.647241,0.000201,0.000393,0.000091,-0.005226,-0.997012,-0.077014,0.000617,0.005466,0.003741,-55.585693,-53.977772,63.873810,,,,,,,1
1514403723.234382,-0.067810,1.493471,1.647317,-0.001944,0.000391,0.001157,-0.005230,-0.997012,-0.077016,0.001095,0.005877,0.004277,-55.880478,-54.160553,63.838531,,,,,,,1
1514403723.244362,-0.067758,1.493465,1.647248,-0.000879,-0.001741,0.000080,-0.005227,-0.997011,-0.077023,0.000253,0.004793,0.005978,-55.880478,-54.160553,63.838531,,,,,,,1
1514403723.254371,-0.067796,1.493483,1.647273,0.001265,-0.000694,0.001159,-0.005229,-0.997013,-0.077004,0.001109,0.004856,0.004953,-55.689758,-54.013721,63.875122,,,,,,,1
1514403723.264351,-0.067865,1.493475,1.647347,-0.000875,-0.000686,0.001155,-0.005234,-0.997012,-0.077012,0.000382,0.004840,0.003434,-55.689758,-54.013721,63.875122,,,,,,,1
1514403723.274330,-0.067947,1.493473,1.647423,-0.000874,-0.001760,0.001152,-0.005241,-0.997012,-0.077014,0.000190,0.003970,0.005130,-55.590332,-54.108681,63.792877,,,,,,,1
1514403723.284340,-0.067870,1.493471,1.647360,-0.000859,0.001467,0.000097,-0.005235,-0.997012,-0.077017,0.000841,0.005252,0.004812,-55.590332,-54.108681,63.792877,,,,,,,1
1514403723.294319,-0.068013,1.493473,1.647508,0.000194,0.000387,0.001162,-0.005246,-0.997012,-0.077014,-0.000033,0.005191,0.004351,-55.659836,-53.963203,63.626648,,,,,,,1
1514403723.304298,-0.067880,1.493471,1.647379,0.000203,0.000430,-0.002046,-0.005236,-0.997012,-0.077016,0.000002,0.005435,0.004797,-55.659836,-53.963203,63.626648,,,,,,,1
1514403723.314308,-0.067883,1.493463,1.647380,-0.000873,-0.001742,0.000082,-0.005237,-0.997011,-0.077024,0.000873,0.005480,0.004713,-55.587570,-54.104744,63.856934,,,,,,,1
1514403723.324287,-0.067958,1.493456,1.647454,-0.000868,0.000386,0.001161,-0.005243,-0.997011,-0.077031,0.000467,0.005266,0.004415,-55.587570,-54.104744,63.856934,,,,,,,1
1514403723.334266,-0.067952,1.493453,1.647462,0.000213,0.002538,0.000103,-0.005243,-0.997011,-0.077034,0.001550,0.004732,0.004509,-55.527969,-54.116074,63.898621,,,,,,,1
1514403723.344276,-0.067962,1.493456,1.647475,0.000197,-0.000672,0.000088,-0.005243,-0.997011,-0.077031,0.000711,0.005159,0.004628,-55.527969,-54.116074,63.898621,,,,,,,1
1514403723.354255,-0.067830,1.493459,1.647352,0.001273,0.001469,0.000099,-0.005233,-0.997011,-0.077028,0.000793,0.005449,0.003419,-55.546799,-53.994274,63.795746,,,,,,,1
1514403723.364235,-0.067906,1.493467,1.647438,0.001266,0.000384,0.001164,-0.005238,-0.997012,-0.077019,0.000950,0.005206,0.004052,-55.546799,-53.994274,63.795746,,,,,,,1
1514403723.374244,-0.067917,1.493463,1.647446,-0.000877,-0.000663,0.000085,-0.005239,-0.997011,-0.077022,0.000494,0.005617,0.005031,-55.593292,-54.000259,63.994110,,,,,,,1
1514403723.384224,-0.068006,1.493467,1.647530,0.000193,-0.000667,0.000087,-0.005246,-0.997012,-0.077019,0.000409,0.005999,0.004784,-55.593292,-54.000259,63.994110,,,,,,,1
1514403723.394203,-0.068142,1.493464,1.647676,-0.000864,0.001459,0.001165,-0.005256,-0.997011,-0.077021,0.000511,0.005541,0.004512,-55.544205,-54.030682,63.803101,,,,,,,1
1514403723.404182,-0.068172,1.493478,1.647700,0.001271,-0.000678,0.000089,-0.005258,-0.997012,-0.077008,-0.000067,0.004321,0.005047,-55.544205,-54.030682,63.803101,,,,,,,1
1514403723.414192,-0.068187,1.493487,1.647715,0.000201,0.000402,0.000091,-0.005259,-0.997013,-0.076999,-0.000143,0.004063,0.004993,-55.602173,-54.002625,63.688507,,,,,,,1
1514403723.424171,-0.068202,1.493492,1.647729,0.000198,0.000388,0.001161,-0.005259,-0.997014,-0.076996,-0.000127,0.004735,0.004303,-55.602173,-54.002625,63.688507,,,,,,,1
1514403723.434150,-0.068204,1.493479,1.647726,-0.001944,-0.000675,0.001152,-0.005261,-0.997012,-0.077009,-0.000278,0.004947,0.004225,-55.689926,-54.062256,63.946686,,,,,,,1
1514403723.444160,-0.068148,1.493483,1.647668,-0.001934,0.000424,-0.000983,-0.005256,-0.997013,-0.077007,0.000617,0.005680,0.005580,-55.689926,-54.062256,63.946686,,,,,,,1
1514403723.454139,-0.068158,1.493485,1.647681,0.001270,0.000400,0.000091,-0.005257,-0.997013,-0.077004,0.000725,0.004337,0.005303,-55.735703,-53.898773,63.938538,,,,,,,1
1514403723.464119,-0.068247,1.493499,1.647775,0.001267,0.000386,0.001161,-0.005262,-0.997014,-0.076990,0.001310,0.004369,0.004999,-55.735703,-53.898773,63.938538,,,,,,,1
1514403723.474128,-0.068314,1.493495,1.647851,0.001268,-0.000689,0.001156,-0.005268,-0.997014,-0.076992,0.000736,0.005635,0.004879,-55.853882,-54.154202,63.935760,,,,,,,1
1514403723.484108,-0.068344,1.493504,1.647870,0.002337,-0.000693,0.001158,-0.005270,-0.997014,-0.076984,0.000326,0.005468,0.004596,-55.853882,-54.154202,63.935760,,,,,,,1
1514403723.494087,-0.068334,1.493491,1.647869,-0.000868,0.000426,-0.000984,-0.005270,-0.997013,-0.076996,0.000585,0.005452,0.005341,-55.457397,-54.012554,63.959412,,,,,,,1
1514403723.504097,-0.068399,1.493476,1.647937,-0.000870,0.001468,0.001160,-0.005276,-0.997012,-0.077010,0.001446,0.005023,0.005202,-55.457397,-54.012554,63.959412,,,,,,,1
1514403723.514076,-0.068420,1.493468,1.647941,-0.000870,-0.000664,0.000081,-0.005278,-0.997012,-0.077017,0.000654,0.005145,0.004675,-55.602173,-53.986107,63.800751,,,,,,,1
1514403723.524055,-0.068498,1.493472,1.648023,0.000201,0.000388,0.001157,-0.005284,-0.997012,-0.077014,0.000599,0.004870,0.004382,-55.602173,-53.986107,63.800751,,,,,,,1
1514403723.534065,-0.068560,1.493459,1.648089,-0.001935,0.000412,0.000083,-0.005289,-0.997011,-0.077027,0.001612,0.005495,0.004761,-55.635941,-53.999847,64.056061,,,,,,,1
1514403723.544044,-0.068566,1.493463,1.648101,-0.000868,0.000393,0.001154,-0.005289,-0.997011,-0.077024,-0.000021,0.005404,0.004270,-55.635941,-53.999847,64.056061,,,,,,,1
1514403723.554024,-0.068457,1.493472,1.647979,0.001271,-0.000655,-0.000987,-0.005280,-0.997012,-0.077015,0.000581,0.005557,0.003819,-55.654114,-54.069817,64.014679,,,,,,,1
1514403723.564034,-0.068386,1.493476,1.647924,0.000210,0.001491,-0.000980,-0.005275,-0.997012,-0.077012,0.001674,0.005740,0.004685,-55.654114,-54.069817,64.014679,,,,,,,1
1514403723.574013,-0.068272,1.493490,1.647808,0.001274,0.000418,-0.000983,-0.005265,-0.997013,-0.076998,0.000672,0.005650,0.005175,-55.694824,-54.167183,63.773315,,,,,,,1
1514403723.583992,-0.068223,1.493487,1.647741,-0.000874,-0.001716,-0.000997,-0.005261,-0.997013,-0.077000,0.001538,0.005497,0.004735,-55.694824,-54.167183,63.773315,,,,,,,1
1514403723.594002,-0.068240,1.493490,1.647751,0.000200,0.000409,0.000084,-0.005262,-0.997013,-0.076997,0.001646,0.005177,0.004900,-55.506531,-54.112980,63.792389,,,,,,,1
1514403723.603981,-0.068178,1.493489,1.647689,-0.000866,0.000428,-0.000988,-0.005258,-0.997013,-0.077000,-0.000144,0.005711,0.004780,-55.506531,-54.112980,63.792389,,,,,,,1
1514403723.613961,-0.068204,1.493497,1.647702,0.002328,-0.002812,0.000073,-0.005259,-0.997014,-0.076991,0.000529,0.005055,0.004787,-55.698196,-54.063461,63.771515,,,,,,,1
1514403723.623971,-0.068149,1.493494,1.647641,0.000193,-0.001732,0.000074,-0.005255,-0.997014,-0.076994,0.000479,0.004521,0.004301,-55.698196,-54.063461,63.771515,,,,,,,1
1514403723.633950,-0.068359,1.493491,1.647855,-0.000868,0.000398,0.001151,-0.005272,-0.997013,-0.076996,0.000068,0.004566,0.004136,-55.713882,-54.112991,63.715698,,,,,,,1
1514403723.643929,-0.068368,1.493494,1.647863,0.001275,0.000403,0.000086,-0.005272,-0.997014,-0.076993,0.000099,0.005299,0.004499,-55.713882,-54.112991,63.715698,,,,,,,1
1514403723.653939,-0.068380,1.493492,1.647869,0.000193,-0.000656,0.000077,-0.005273,-0.997014,-0.076995,0.000421,0.005177,0.005172,-55.668335,-54.078979,63.971863,,,,,,,1
1514403723.663918,-0.068444,1.493485,1.647938,0.000200,0.000430,-0.000987,-0.005279,-0.997013,-0.077003,0.000808,0.004978,0.003898,-55.668335,-54.078979,63.971863,,,,,,,1
1514403723.673898,-0.068438,1.493487,1.647946,0.000207,0.002556,0.000091,-0.005278,-0.997013,-0.077000,0.001387,0.004246,0.004368,-55.711044,-53.869415,63.894989,,,,,,,1
1514403723.683907,-0.068531,1.493496,1.648033,0.001265,-0.000662,0.000079,-0.005285,-0.997014,-0.076992,0.000905,0.005910,0.004299,-55.711044,-53.869415,63.894989,,,,,,,1
1514403723.693887,-0.068687,1.493503,1.648188,-0.000882,-0.001756,0.002209,-0.005296,-0.997014,-0.076983,0.000673,0.005620,0.004672,-55.660767,-54.058975,63.863800,,,,,,,1
1514403723.703866,-0.068704,1.493512,1.648204,0.001270,-0.000650,-0.000991,-0.005297,-0.997015,-0.076975,0.000765,0.005331,0.004877,-55.660767,-54.058975,63.863800,,,,,,,1
1514403723.713876,-0.068782,1.493515,1.648288,-0.000875,0.000404,0.001148,-0.005303,-0.997015,-0.076972,0.001259,0.005179,0.003715,-55.695618,-54.005302,63.739349,,,,,,,1
1514403723.723855,-0.068659,1.493524,1.648168,0.000201,0.000429,-0.000990,-0.005293,-0.997016,-0.076964,0.000974,0.004645,0.003981,-55.695618,-54.005302,63.739349,,,,,,,1
1514403723.733834,-0.068740,1.493528,1.648250,0.000200,0.000395,0.001149,-0.005299,-0.997016,-0.076961,0.000675,0.004890,0.004588,-55.713364,-53.917023,63.837311,,,,,,,1
1514403723.743844,-0.068677,1.493533,1.648193,0.000207,0.001480,0.000084,-0.005294,-0.997017,-0.076958,-0.000108,0.005089,0.004677,-55.713364,-53.917023,63.837311,,,,,,,1
1514403723.753823,-0.068614,1.493531,1.648128,-0.000860,0.001498,-0.000988,-0.005289,-0.997017,-0.076961,0.000543,0.005729,0.004161,-55.547073,-53.939480,63.668488,,,,,,,1
1514403723.763802,-0.068620,1.493528,1.648133,-0.000871,-0.000659,0.000072,-0.005289,-0.997016,-0.076963,0.001353,0.005027,0.003553,-55.547073,-53.939480,63.668488,,,,,,,1
1514403723.773812,-0.068616,1.493527,1.648139,-0.000864,0.000408,0.000076,-0.005289,-0.997016,-0.076965,0.001154,0.005256,0.003982,-55.586136,-54.041466,63.914490,,,,,,,1
1514403723.783791,-0.068693,1.493519,1.648210,-0.000871,-0.000677,0.001140,-0.005296,-0.997016,-0.076973,0.000398,0.006079,0.004707,-55.586136,-54.041466,63.914490,,,,,,,1
1514403723.793771,-0.068783,1.493522,1.648289,-0.000868,-0.001738,0.000065,-0.005303,-0.997016,-0.076970,0.000191,0.006095,0.004048,-55.321320,-53.841969,63.912659,,,,,,,1
1514403723.803779,-0.068868,1.493520,1.648362,0.000201,-0.001742,0.000067,-0.005309,-0.997016,-0.076972,0.000228,0.005377,0.004813,-55.321320,-53.841969,63.912659,,,,,,,1
1514403723.813760,-0.068806,1.493518,1.648300,0.000194,-0.000661,0.000069,-0.005305,-0.997016,-0.076974,0.001261,0.004965,0.004495,-55.499008,-53.941704,63.934937,,,,,,,1
1514403723.823739,-0.068947,1.493509,1.648439,-0.000878,0.000385,0.002211,-0.005316,-0.997015,-0.076982,0.000555,0.004766,0.004945,-55.499008,-53.941704,63.934937,,,,,,,1
1514403723.833749,-0.069086,1.493505,1.648582,-0.000865,0.000407,0.000071,-0.005327,-0.997015,-0.076985,0.000475,0.005819,0.004185,-55.667191,-53.995777,63.760345,,,,,,,1
1514403723.843728,-0.069154,1.493507,1.648660,-0.000856,0.003606,0.001155,-0.005332,-0.997015,-0.076982,0.000480,0.005331,0.004457,-55.667191,-53.995777,63.760345,,,,,,,1
1514403723.853706,-0.069156,1.493500,1.648660,-0.000867,-0.000667,0.000065,-0.005333,-0.997014,-0.076990,0.001045,0.005788,0.004389,-55.373917,-53.738907,63.870575,,,,,,,1
1514403723.863716,-0.069024,1.493499,1.648528,-0.000864,-0.000652,-0.001004,-0.005323,-0.997014,-0.076992,0.000928,0.005391,0.005062,-55.373917,-53.738907,63.870575,,,,,,,1
1514403723.873695,-0.069139,1.493511,1.648614,0.001266,-0.002818,0.000058,-0.005331,-0.997015,-0.076979,0.001318,0.004522,0.003797,-55.358322,-53.993526,63.731445,,,,,,,1
1514403723.883674,-0.069206,1.493509,1.648691,-0.000854,0.002546,0.000078,-0.005336,-0.997015,-0.076981,0.000835,0.005102,0.004227,-55.358322,-53.993526,63.731445,,,,,,,1
1514403723.893684,-0.069131,1.493507,1.648625,-0.001929,0.001497,-0.000999,-0.005330,-0.997015,-0.076983,0.000860,0.005376,0.005511,-55.640701,-53.961464,63.705780,,,,,,,1
1514403723.903663,-0.069215,1.493515,1.648708,0.002341,0.000381,0.001142,-0.005336,-0.997015,-0.076975,0.001552,0.005270,0.005045,-55.640701,-53.961464,63.705780,,,,,,,1
1514403723.913643,-0.069226,1.493518,1.648718,-0.000866,-0.000666,0.000061,-0.005337,-0.997016,-0.076972,0.001660,0.005087,0.005118,-55.762741,-53.944099,63.780762,,,,,,,1
1514403723.923622,-0.069306,1.493521,1.648797,-0.000869,-0.000680,0.001131,-0.005343,-0.997016,-0.076969,0.001147,0.005332,0.003467,-55.762741,-53.944099,63.780762,,,,,,,1
1514403723.933632,-0.069222,1.493515,1.648729,-0.000850,0.002544,0.000075,-0.005337,-0.997015,-0.076976,0.000820,0.004828,0.003780,-55.703812,-53.942406,63.763611,,,,,,,1
1514403723.943611,-0.069217,1.493512,1.648733,0.000207,-0.000674,0.000062,-0.005337,-0.997015,-0.076979,0.001110,0.005560,0.004789,-55.703812,-53.942406,63.763611,,,,,,,1
1514403723.953590,-0.069300,1.493521,1.648815,0.002358,0.000383,0.000070,-0.005343,-0.997016,-0.076970,0.001223,0.006140,0.004552,-55.828613,-53.835888,64.001068,,,,,,,1
1514403723.963600,-0.069377,1.493517,1.648885,-0.000855,-0.000676,0.000059,-0.005349,-0.997015,-0.076973,0.000954,0.005255,0.004371,-55.828613,-53.835888,64.001068,,,,,,,1
1514403723.973579,-0.069242,1.493515,1.648747,-0.000852,-0.000644,-0.002082,-0.005338,-0.997015,-0.076975,0.000364,0.004843,0.003641,-55.609375,-53.941067,63.750702,,,,,,,1
1514403723.983558,-0.069254,1.493511,1.648745,-0.001928,-0.000668,0.000055,-0.005339,-0.997015,-0.076977,0.000884,0.005148,0.004070,-55.609375,-53.941067,63.750702,,,,,,,1
1514403723.993568,-0.069330,1.493515,1.648821,-0.000859,0.000387,0.001130,-0.005345,-0.997015,-0.076973,0.000844,0.005331,0.004509,-55.675934,-53.812248,63.839020,,,,,,,1
1514403724.003547,-0.069402,1.493516,1.648896,0.000213,0.000397,0.000062,-0.005351,-0.997015,-0.076971,0.000132,0.005713,0.003652,-55.675934,-53.812248,63.839020,,,,,,,1
1514403724.013527,-0.069385,1.493493,1.648878,-0.000855,0.000401,0.000059,-0.005351,-0.997014,-0.076994,0.000758,0.005360,0.003523,-55.550720,-53.985020,63.844421,,,,,,,1
1514403724.023536,-0.069276,1.493502,1.648751,0.000205,-0.002802,-0.001023,-0.005342,-0.997014,-0.076986,0.000459,0.004949,0.003606,-55.550720,-53.985020,63.844421,,,,,,,1
1514403724.033516,-0.069354,1.493498,1.648821,0.000210,-0.000690,0.001124,-0.005348,-0.997014,-0.076988,0.000770,0.005635,0.004341,-55.685898,-53.930817,63.952972,,,,,,,1
1514403724.043495,-0.069146,1.493501,1.648621,0.001294,0.001477,-0.001003,-0.005332,-0.997014,-0.076985,0.000968,0.005284,0.004414,-55.685898,-53.930817,63.952972,,,,,,,1
1514403724.053505,-0.069012,1.493506,1.648491,0.000221,-0.000648,-0.002085,-0.005321,-0.997015,-0.076982,0.000713,0.005361,0.004121,-55.520569,-53.910561,63.976898,,,,,,,1
1514403724.063484,-0.069074,1.493504,1.648564,-0.000853,0.000384,0.001126,-0.005326,-0.997014,-0.076984,0.000855,0.005224,0.004414,-55.520569,-53.910561,63.976898,,,,,,,1
1514403724.073463,-0.069076,1.493501,1.648564,-0.000847,0.000397,0.000056,-0.005326,-0.997014,-0.076987,0.001695,0.004842,0.004248,-55.576782,-53.947193,63.802399,,,,,,,1
1514403724.083473,-0.069018,1.493505,1.648505,0.000225,0.000407,-0.001012,-0.005322,-0.997015,-0.076984,0.001187,0.004964,0.003360,-55.576782,-53.947193,63.802399,,,,,,,1
1514403724.093452,-0.069159,1.493500,1.648643,0.000214,0.000384,0.001126,-0.005333,-0.997014,-0.076986,0.000526,0.005452,0.004690,-55.703720,-53.958118,63.834198,,,,,,,1
1514403724.103416,-0.069099,1.493508,1.648587,0.001294,0.001479,-0.001006,-0.005328,-0.997015,-0.076978,0.000719,0.005972,0.004819,-55.703720,-53.958118,63.834198,,,,,,,1
1514403724.113426,-0.068970,1.493512,1.648455,0.000224,0.000410,-0.001013,-0.005317,-0.997015,-0.076975,0.000847,0.004812,0.004404,-55.606873,-54.058369,63.766846,,,,,,,1
1514403724.123405,-0.069031,1.493501,1.648519,-0.001919,0.000404,0.000052,-0.005323,-0.997014,-0.076982,0.000531,0.005208,0.004579,-55.606873,-54.058369,63.766846,,,,,,,1
1514403724.133385,-0.068830,1.493505,1.648321,0.000225,0.000409,-0.001014,-0.005307,-0.997015,-0.076979,0.000775,0.006505,0.004119,-55.667053,-54.051502,63.991486,,,,,,,1
1514403724.143394,-0.068828,1.493502,1.648321,0.000218,-0.000676,0.000051,-0.005307,-0.997014,-0.076981,0.000287,0.005758,0.005189,-55.667053,-54.051502,63.991486,,,,,,,1
1514403724.153374,-0.068700,1.493505,1.648186,-0.000841,0.000411,-0.001015,-0.005297,-0.997015,-0.076978,0.001757,0.005239,0.005003,-55.726074,-53.989841,63.902985,,,,,,,1
1514403724.163353,-0.068830,1.493501,1.648325,-0.000851,-0.000689,0.001119,-0.005307,-0.997014,-0.076981,0.001050,0.005132,0.004654,-55.726074,-53.989841,63.902985,,,,,,,1
1514403724.173363,-0.068904,1.493509,1.648408,0.000229,0.001465,0.000060,-0.005312,-0.997015,-0.076972,0.001024,0.005606,0.004371,-55.676956,-53.915886,63.973083,,,,,,,1
1514403724.183342,-0.068971,1.493501,1.648473,-0.000845,0.000398,0.000053,-0.005318,-0.997014,-0.076980,0.001671,0.004491,0.004165,-55.676956,-53.915886,63.973083,,,,,,,1
1514403724.193321,-0.068968,1.493497,1.648473,-0.000845,0.000399,0.000052,-0.005318,-0.997014,-0.076982,0.000221,0.004338,0.003785,-55.642242,-53.825726,64.048370,,,,,,,1
1514403724.203331,-0.068961,1.493500,1.648480,0.001299,0.001462,0.000061,-0.005317,-0.997014,-0.076979,0.001334,0.005178,0.004179,-55.642242,-53.825726,64.048370,,,,,,,1
1514403724.213310,-0.068965,1.493498,1.648483,-0.000849,-0.002804,-0.001032,-0.005317,-0.997014,-0.076981,0.001625,0.005467,0.004380,-55.501633,-53.779545,64.046722,,,,,,,1
1514403724.223289,-0.068763,1.493487,1.648268,-0.000842,-0.001719,-0.002097,-0.005303,-0.997013,-0.076993,0.001351,0.006046,0.003858,-55.501633,-53.779545,64.046722,,,,,,,1
1514403724.233299,-0.068775,1.493495,1.648279,0.000236,0.001460,0.000057,-0.005303,-0.997014,-0.076985,0.000863,0.005498,0.004826,-55.713226,-53.860275,63.793640,,,,,,,1
1514403724.243278,-0.068713,1.493494,1.648211,-0.000835,0.000407,-0.001019,-0.005298,-0.997014,-0.076986,0.000904,0.004490,0.003897,-55.713226,-53.860275,63.793640,,,,,,,1
1514403724.253258,-0.068648,1.493492,1.648143,-0.000833,0.000406,-0.001019,-0.005293,-0.997014,-0.076989,-0.000001,0.005085,0.003792,-55.768524,-54.027939,63.787109,,,,,,,1
1514403724.263267,-0.068691,1.493473,1.648195,-0.001902,0.001467,0.000053,-0.005298,-0.997012,-0.077007,0.000614,0.004931,0.004604,-55.768524,-54.027939,63.787109,,,,,,,1
1514403724.273247,-0.068628,1.493472,1.648131,-0.000836,0.000409,-0.001020,-0.005293,-0.997012,-0.077009,0.000822,0.005587,0.005048,-55.796509,-54.095039,63.678833,,,,,,,1
1514403724.283226,-0.068694,1.493464,1.648195,0.000224,-0.000695,0.001116,-0.005299,-0.997011,-0.077016,0.001728,0.004870,0.004827,-55.796509,-54.095039,63.678833,,,,,,,1
1514403724.293236,-0.068542,1.493452,1.648047,-0.000830,0.000405,-0.001020,-0.005288,-0.997010,-0.077029,0.000283,0.005174,0.004031,-55.951721,-53.871330,63.771698,,,,,,,1
1514403724.303215,-0.068481,1.493455,1.647985,0.000232,-0.000685,0.000046,-0.005283,-0.997011,-0.077026,-0.000271,0.005449,0.004867,-55.951721,-53.871330,63.771698,,,,,,,1
1514403724.313194,-0.068341,1.493448,1.647843,-0.000829,0.000404,-0.001020,-0.005273,-0.997010,-0.077033,0.000970,0.005616,0.004767,-55.664932,-53.814068,63.924805,,,,,,,1
1514403724.323204,-0.068354,1.493462,1.647859,0.001312,0.001452,0.000058,-0.005273,-0.997011,-0.077019,0.001016,0.005022,0.004159,-55.664932,-53.814068,63.924805,,,,,,,1
1514403724.333183,-0.068369,1.493475,1.647878,0.002373,0.000365,0.001124,-0.005273,-0.997012,-0.077005,0.001550,0.005588,0.003901,-55.641632,-53.824730,63.952362,,,,,,,1
1514403724.343163,-0.068378,1.493474,1.647881,-0.000837,-0.000679,0.000044,-0.005274,-0.997012,-0.077007,0.000544,0.006320,0.005093,-55.641632,-53.824730,63.952362,,,,,,,1
1514403724.353172,-0.068435,1.493461,1.647942,-0.000827,0.000387,0.000050,-0.005279,-0.997011,-0.077020,0.001007,0.005266,0.004281,-55.739517,-53.933037,63.846527,,,,,,,1
1514403724.363152,-0.068290,1.493459,1.647804,0.000246,0.000397,-0.001018,-0.005268,-0.997011,-0.077022,0.000339,0.004915,0.003642,-55.739517,-53.933037,63.846527,,,,,,,1
1514403724.373131,-0.068286,1.493446,1.647799,-0.001898,0.000393,0.000048,-0.005269,-0.997010,-0.077035,0.001057,0.004349,0.003365,-55.784988,-54.003830,64.036804,,,,,,,1
1514403724.383141,-0.068288,1.493444,1.647805,-0.000828,0.000389,0.000050,-0.005269,-0.997010,-0.077037,0.000523,0.005753,0.003688,-55.784988,-54.003830,64.036804,,,,,,,1
1514403724.393120,-0.068371,1.493447,1.647880,0.000239,-0.001779,0.001112,-0.005275,-0.997010,-0.077033,0.000987,0.005494,0.004188,-55.765533,-53.971134,64.067810,,,,,,,1
1514403724.403099,-0.068306,1.493445,1.647814,0.000253,0.000392,-0.001017,-0.005270,-0.997010,-0.077035,0.000250,0.005005,0.004846,-55.765533,-53.971134,64.067810,,,,,,,1
1514403724.413109,-0.068294,1.493431,1.647804,-0.000826,-0.000703,0.001115,-0.005270,-0.997009,-0.077048,0.000799,0.005676,0.004523,-55.757080,-53.807301,63.972198,,,,,,,1
1514403724.423088,-0.068451,1.493434,1.647950,0.001306,-0.002854,0.001109,-0.005282,-0.997009,-0.077044,0.000964,0.005401,0.003817,-55.757080,-53.807301,63.972198,,,,,,,1
1514403724.433067,-0.068386,1.493432,1.647882,-0.001884,0.000400,-0.001021,-0.005277,-0.997009,-0.077046,0.001203,0.005310,0.004872,-55.565109,-54.091911,63.831207,,,,,,,1
1514403724.443047,-0.068470,1.493430,1.647955,-0.000831,-0.001789,0.002180,-0.005284,-0.997009,-0.077048,0.001286,0.005081,0.006186,-55.565109,-54.091911,63.831207,,,,,,,1
1514403724.453056,-0.068547,1.493432,1.648029,0.000250,-0.000711,0.001117,-0.005289,-0.997009,-0.077045,0.000513,0.005096,0.005618,-55.686646,-54.169460,64.003601,,,,,,,1
1514403724.463036,-0.068551,1.493439,1.648041,0.001331,0.001441,0.000059,-0.005289,-0.997009,-0.077036,0.000696,0.004898,0.004145,-55.686646,-54.169460,64.003601,,,,,,,1
1514403724.473015,-0.068485,1.493438,1.647974,-0.000811,-0.000679,-0.001023,-0.005284,-0.997009,-0.077038,0.001302,0.004791,0.005291,-55.926758,-54.229996,63.910156,,,,,,,1
1514403724.483025,-0.068565,1.493441,1.648053,0.000255,-0.000698,0.000048,-0.005290,-0.997010,-0.077034,0.001140,0.004944,0.004647,-55.926758,-54.229996,63.910156,,,,,,,1
1514403724.493004,-0.068553,1.493443,1.648059,0.001330,0.001443,0.000059,-0.005289,-0.997010,-0.077031,0.000894,0.004883,0.004918,-55.808777,-54.165306,63.810913,,,,,,,1
1514403724.502983,-0.068634,1.493451,1.648139,0.001322,-0.000699,0.000049,-0.005295,-0.997010,-0.077022,0.001434,0.004365,0.004665,-55.808777,-54.165306,63.810913,,,,,,,1
1514403724.512993,-0.068722,1.493466,1.648226,0.001325,-0.000719,0.001119,-0.005301,-0.997012,-0.077008,0.000494,0.005205,0.004269,-55.913818,-54.030182,63.873077,,,,,,,1
1514403724.522972,-0.068746,1.493481,1.648242,0.001328,-0.000705,0.000050,-0.005301,-0.997013,-0.076993,0.000647,0.005710,0.005048,-55.913818,-54.030182,63.873077,,,,,,,1
1514403724.532951,-0.068886,1.493479,1.648381,0.000254,-0.000714,0.001117,-0.005312,-0.997012,-0.076995,0.001040,0.005115,0.005004,-55.891464,-53.958233,63.970612,,,,,,,1
1514403724.542961,-0.068684,1.493483,1.648183,0.000267,0.001457,-0.001012,-0.005296,-0.997013,-0.076991,0.001451,0.005253,0.004863,-55.891464,-53.958233,63.970612,,,,,,,1
1514403724.552940,-0.068740,1.493480,1.648252,-0.000797,0.002497,0.001131,-0.005301,-0.997013,-0.076993,0.000784,0.005420,0.005414,-55.851379,-53.998009,63.939697,,,,,,,1
1514403724.562920,-0.068807,1.493473,1.648317,-0.000806,-0.000702,0.000047,-0.005307,-0.997012,-0.077000,0.000744,0.005542,0.005268,-55.851379,-53.998009,63.939697,,,,,,,1
1514403724.572929,-0.068821,1.493471,1.648319,-0.000811,-0.000715,0.001116,-0.005308,-0.997012,-0.077002,0.000806,0.004901,0.004324,-55.810501,-53.794052,63.801056,,,,,,,1
1514403724.582909,-0.068692,1.493476,1.648188,0.000273,0.001452,-0.001012,-0.005297,-0.997012,-0.076998,0.000186,0.005008,0.005724,-55.810501,-53.794052,63.801056,,,,,,,1
1514403724.592888,-0.068485,1.493470,1.647980,-0.001868,0.000403,-0.002090,-0.005282,-0.997012,-0.077005,0.000155,0.004901,0.005487,-55.768463,-53.915340,63.842255,,,,,,,1
1514403724.602898,-0.068500,1.493478,1.647992,0.001332,-0.000709,0.000050,-0.005283,-0.997012,-0.076996,0.000934,0.005252,0.005097,-55.768463,-53.915340,63.842255,,,,,,,1
1514403724.612877,-0.068552,1.493466,1.648055,-0.001872,0.001431,0.001124,-0.005287,-0.997011,-0.077008,0.000847,0.005602,0.005185,-55.734344,-53.886787,63.899506,,,,,,,1
1514403724.622856,-0.068497,1.493476,1.647998,0.000263,0.000351,0.001123,-0.005283,-0.997012,-0.076999,0.000140,0.004901,0.004368,-55.734344,-53.886787,63.899506,,,,,,,1
